Name,Commune,Longitude,Latitude
La Villeneuve-au-Chène,La Villeneuve-au-Chêne,4.388953710688045,48.229212130673936
St-Léger-Moussey,St-Léger-près-Troyes,4.0836727744614745,48.22772591159888
Romilly-sur-Seine,Romilly-sur-Seine,3.728582680109785,48.514016572128476
Buchères-Verrières,Buchères,4.132615641779363,48.23172693249482
Mussy-sur-Seine,Mussy-sur-Seine,4.4931682804869935,47.97834410260661
Marnay-sur-Seine,Marnay-sur-Seine,3.561552144529869,48.509463518938034
Ervy-le-Châtel,Ervy-le-Châtel,3.9218655739284745,48.044691034458275
Rouilly-St-Loup,Rouilly-St-Loup,4.154524117900794,48.2614873867703
Arsonval-Jaucourt,Jaucourt,4.647157709321023,48.26092007054018
Montaulin,Montaulin,4.1943314544540025,48.25917240034617
Laneuveville-devant-Nancy,Laneuveville-devant-Nancy,6.227843943319756,48.65562614352702
Villeneuve-l'Archevêque,Villeneuve-l'Archevêque,3.547526386902262,48.238416674768295
Aix-en-Othe-Villemaur,Villemaur-sur-Vanne,3.71792830697811,48.247931670448246
Charmont,Charmont-sous-Barbuise,4.173755529094501,48.403205538126784
Malay-le-Grand,Malay-le-Grand,3.337644286552792,48.18063282898511
Thennelières,Thennelières,4.176474353731865,48.28736032519391
Fontvannes,Fontvannes,3.87703827761176,48.27508972962856
Estissac,Estissac,3.8024145412287815,48.274286236155824
Champigneulles,Champigneulles,6.171109338496571,48.7319749668116
La Ferté-sous-Jouarre,La Ferté-sous-Jouarre,3.1259131372845315,48.950957378630235
Couilly-St-Germain,St-Germain-sur-Morin,2.8542387603395203,48.88268311019452
Jouy-sur-Morin-Le Marais,Jouy-sur-Morin,3.2735732529111066,48.79070936164587
Barberey-St-Sulpice,Barberey-St-Sulpice,4.026862908152839,48.33524095334426
Lescherolles,Lescherolles,3.34483641263435,48.772737187845316
Nogent-l'Artaud-Charly,Nogent-l'Artaud,3.322361564902094,48.96865518202849
Mortcerf,Mortcerf,2.9075285036371237,48.789121503903154
Esternay,Esternay,3.5620496010044773,48.730950436269644
Troyes,Troyes,4.091767915224051,48.269609874163464
Grisy-Suisnes,Grisy-Suisnes,,
Émerainville-Pontault-Combault,Émerainville,2.6173237227965087,48.80647009800447
Sucy-Bonneuil,St-Maur-des-Fossés,2.507810873732934,48.77101864969921
Léchelle (Seine-et-Marne),Léchelle,3.3830999855931903,48.57953080812031
Roissy-en-Brie,Roissy-en-Brie,2.650306695506368,48.79567955309218
Chelles-Gournay,Chelles,2.5827095006372134,48.87414942148909
Longueville,Longueville,3.2502362498050728,48.51356528482653
Artonges,Artonges,3.5423440285023284,48.92659927853086
Villecresnes,Villecresnes,,
Santeny-Servon,Santeny,,
Rosières-aux-Salines,Dombasle-sur-Meurthe,6.350395622522613,48.60533985421665
Varangéville-St-Nicolas,Varangéville,6.313158113570468,48.63533630189549
Blainville-Damelevières,Damelevières,6.38521142559936,48.565698686736546
Mont-sur-Meurthe,Mont-sur-Meurthe,6.450133611525778,48.56008458863305
Lunéville,Lunéville,6.4968660858451415,48.587861328669135
Punerot,Punerot,5.804783080509052,48.482522338775816
Clérey-Omelmont,Clérey-sur-Brenon,6.141014371786053,48.50423595036848
Girauvoisin-St-Julien,St-Julien-sous-les-Côtes,5.6188606368044045,48.80998748967696
Thiaville,Thiaville-sur-Meurthe,6.810414357035961,48.413727359479
Xermaménil-Lamath,Lamath,6.451686576904242,48.53204782821901
Pulligny-Autrey,Autrey,6.137668551654068,48.53572519318866
Einvaux,Einvaux,6.393118791209494,48.50340331783304
Ruppes,Ruppes,5.773373746678858,48.4602353710089
Neufchâteau,Neufchâteau,5.678486329668262,48.35384586562155
Niederhergheim,Niederhergheim,7.3937094090241935,47.98501998806969
Vieux-Thann,Vieux-Thann,7.120561396535635,47.80531453060606
Ribeauvillé,Guémar,7.375645721001062,48.1871492137542
Ranspach,Ranspach,7.012646752152497,47.88162503676015
Sentheim,Sentheim,7.060513961872911,47.752117163368
Bennwihr,Bennwihr,7.356415887419456,48.13066312578734
Munster,Munster,7.134168120018408,48.038162017804545
Hirsingue,Hirsingue,,
Sickert,Sickert,,
Chèvremont,Chèvremont,6.921056166505853,47.62167649944873
Trois-Chênes,Belfort,6.8467011287642245,47.64719585208001
Giromagny,Giromagny,6.830512333160282,47.7365821511033
L'Isle-sur-le-Doubs,L'Isle-sur-le-Doubs,6.581524974372321,47.44734011036897
Port-sur-Saône,Port-sur-Saône,6.053363052604843,47.68959457686493
Vaivre,Vaivre-et-Montoille,6.103583281179694,47.633252956299756
Belfort,Belfort,6.854755518986943,47.63127147568531
Rang,Rang,6.562315099948481,47.42754116324629
Lure,Lure,6.4771958043968025,47.68405459853941
Villars-sous-Dampjoux,Noirefontaine,,
Île-Napoléon-Garage,Sausheim,7.432976751676816,47.78371401600489
Neuf-Brisach,Volgelsheim,7.546163990966253,48.01879653539815
Blodelsheim,Blodelsheim,7.52360176537168,47.886269348542754
Wesserling,Fellering,6.997713951654125,47.88989321816693
Bollwiller,Bollwiller,7.267489660902709,47.856633105635005
Guebwiller,Guebwiller,7.217795254298755,47.906830574383505
Ensisheim,Ensisheim,7.3438489489748155,47.86669833736941
Sundhoffen,Sundhoffen,7.420877678197278,48.046616200085076
Thann,Thann,7.106968882212065,47.80905151571364
Montureux-lès-Baulay,Montureux-lès-Baulay,5.9871397958295525,47.81316606030585
Mont-le-Vernois,Mont-le-Vernois,6.048500527564353,47.60779187697678
Aillevillers,Corbenay,6.337179476654044,47.914184255740615
Champagney,Champagney,6.70147889357162,47.7031520140057
Vereux,Vereux,5.64617079737886,47.51696371792674
Seveux,Seveux,5.762535773119639,47.55219972287428
Gray,Gray,5.558849241097128,47.448822911983
Ste-Croix-aux-Mines,Ste-Croix-aux-Mines,7.230019505262106,48.26170227830795
Heiligenberg-Mollkirch,Mollkirch,7.381375299592059,48.527417571901275
La Vancelle,Kintzheim,7.346348207755231,48.27695021439835
Sarraltroff,Sarraltroff,7.0653962254114475,48.77023568940303
Sarrebourg,Sarrebourg,7.051727539632061,48.738621498252535
Saales,Saales,7.110880725329616,48.34729470328293
Rothau,Rothau,7.2074323436906464,48.45922303173024
Thanville,Thanvillé,,
Ville,Villé,,
Aubervilliers-La Courneuve,La Courneuve,2.3854290578274595,48.924077482532084
Villepatour-Presles,Presles-en-Brie,2.7435322316770763,48.69664666149949
Guérard-La Celle-sur-Morin,Guérard,2.954761856629998,48.81043906077056
Ozoir-la-Ferrière,Ozoir-la-Ferrière,2.6903271973641623,48.77073449456028
Marles-en-Brie,La Houssaye-en-Brie,2.867879658401937,48.73421090942715
Ozouer-le-Voulgis,Ozouer-le-Voulgis,2.781627099756748,48.665876470066884
Changis-St-Jean,Changis-sur-Marne,3.0253477773278052,48.95916369096754
Vaires-Torcy,Vaires-sur-Marne,2.6398124144519874,48.8753517513271
Tournan,Tournan-en-Brie,2.7594111728369004,48.73932470497817
Coulommiers,Coulommiers,3.0819672006898697,48.807719291813115
Neuvy,Neuvy,3.5153280088945227,48.743950769204204
Vauchonvilliers-Maisons-des-Champs,Vauchonvilliers,4.537900236934607,48.26062685052445
St-Jean-de-Bonneval,St-Jean-de-Bonneval,4.0600801975579035,48.166913194744474
Vallentigny-Maizières,Vallentigny,4.586290141617224,48.441449771821745
Bouilly-Roncenay,Roncenay,4.058283261027769,48.19534567389554
Mesgrigny-Méry,Mesgrigny,3.8801940060321662,48.48667964769761
Châtres (Aube),Châtres,3.8552983198632775,48.49912805851685
Crancey,Crancey,3.640023179732588,48.51515780236356
Jeugny,Jeugny,4.0359647853848895,48.12789640354705
Coolus,Coolus,4.355225488523821,48.93219919547282
Brienne-le-Château,Brienne-le-Château,4.531517876258488,48.38890679129789
Mareuil-sur-Ourcq,Mareuil-sur-Ourcq,3.075701654777109,49.13564457102928
Villenauxe,Villenauxe-la-Grande,3.5643518182611214,48.58964108033614
Condé-en-Brie,Condé-en-Brie,3.55612837429191,49.005245222909686
Mézy,Mézy-Moulins,3.506036736540149,49.06682665545265
Coolus,Compertrix,4.355372107069054,48.932431115462855
Sézanne,Sézanne,3.7289419331209017,48.71472822172354
Crézancy,Crézancy,3.515982739006556,49.050895344120704
Yèbles-Guignes,Yèbles,,
Le Gault,Le Gault-Soigny,,
Marainviller,Marainviller,6.6015817455029335,48.588147526826155
Hausbergen,Souffelweyersheim,7.724439170444242,48.622924700960894
Magnières,Magnières,6.55731936703065,48.44571467726226
Frouard,Frouard,6.144376862272563,48.75558155734222
Chaudeney-sur-moselle,Chaudeney-sur-Moselle,5.9081602860847084,48.649012310034465
Diarville,Housséville,6.126315067209318,48.39782905964813
Tantonville,Tantonville,6.129209733482397,48.48391111134653
Pierreville,Pierreville,6.12430206148356,48.54845061087396
Azerailles,Azerailles,6.695827234999587,48.491342488595826
Baccarat,Baccarat,6.744278755021463,48.4519963378768
Ménil-Flin,Flin,6.659235811497862,48.50500295101705
Xeuilley,Xeuilley,6.1019693320636295,48.56967428043808
Ludres,Ludres,6.169946093243105,48.62154755201888
Coussey,Coussey,5.687579796656097,48.40132672222825
Champagne-sur-Vingeanne,Champagne-sur-Vingeanne,5.398491282074338,47.4458324058571
Ste-Colombe-sur-Seine,Ste-Colombe-sur-Seine,4.548175838233546,47.873331439002
Marey-sur-Tille,Marey-sur-Tille,5.080334778848434,47.59907839136071
Champlitte,Champlitte,5.523290201993062,47.613870018245535
Oisilly-Renève,Oisilly,5.373425984903361,47.429540279986526
Laignes,Laignes,4.364235018092948,47.85017033050935
Violot,Violot,5.441260452632216,47.76797786975817
Lux,Lux,5.203727539284982,47.487873384704606
Pavillon-lès-Grancey,Grancey-le-Château-Neuvelle,5.041149043220496,47.63695104798693
Poinson-lès-Grancey,Villars-Santenoge,4.989868904944316,47.72998438284042
Lépanges,Lépanges-sur-Vologne,6.672321134908764,48.17273700973926
Montarlot,Champlitte,5.5371271850706,47.595427210174186
Vanvey-Villiers,Vanvey,4.709174742846901,47.83879727957163
Briaucourt,Briaucourt,5.207200551967769,48.21198452351538
Thaon,Thaon-les-Vosges,6.415969286832468,48.24468016503647
Charmes,Charmes,6.301733373092041,48.37868529582703
St-Dié,St-Dié,6.950498210083728,48.28142701610042
Épinal,Épinal,6.453148843726827,48.146189504141525
Étival-Clairefontaine,Étival-Clairefontaine,6.876938197790184,48.36665344733628
Corcieux-Vanémont,La Houssière,6.8776300559272405,48.19841684438636
Granges,Granges-sur-Vologne,6.790955578970028,48.147386348729384
Remiremont,Remiremont,6.598352080436954,48.016831250313956
Poussay,Poussay,6.1266174313527,48.322426689027516
Pouxeux,Pouxeux,6.581041457042633,48.103949524813444
Arches,Arches,6.528289800019222,48.11988792115844
Laveline-devant-Bruyères,Laveline-devant-Bruyères,6.753285589276005,48.185540644987434
Saulxures-sur-Moselotte,Saulxures-sur-Moselotte,,
Le Thillot,Le Thillot,,
Bazoilles-devant-Hymont,Bazoilles-et-Ménil,6.106799571346961,48.25074508241885
Rambervillers,Rambervillers,6.633542011732531,48.33983266965725
Brouvelieures,Brouvelieures,6.7373084284915805,48.240532592527416
Deinvillers,Deinvillers,6.5669785474604865,48.417439772499065
Gérardmer,Gérardmer,6.873410133003638,48.072193359734115
Fraize,Fraize,7.002800274591452,48.18211918768937
Aurac-Lafayette,St-Georges-d'Aurac,3.5444350889106615,45.15150596853192
Rougeac-Chavaniac,Mazeyrat-d'Allier,3.5671611673555583,45.13542268036903
Alleyras,Alleyras,3.67331356088539,44.91879988332404
Randan,Randan,3.362264375594463,46.009674259496315
St-Yorre,St-Yorre,3.461064924813442,46.06178366547472
La Pacaudière,La Pacaudière,3.868829827171007,46.16310270705078
Clermont-Ferrand,Clermont-Ferrand,3.1159740705041705,45.786344366096436
Gerzat,Gerzat,3.143096869688812,45.83331288297224
Riom-Châtel-Guyon,Riom,3.120954983054932,45.88979622425908
Ennezat-Clerlande,Ennezat,3.2170096895725107,45.916081053704154
Parent-Coudes-Champeix,Parent,3.2167047355740155,45.61418782407018
Issoire,Issoire,3.254208169172224,45.54410777430989
Brioude,Brioude,3.3787359699425124,45.30060705009154
Monistrol-d'Allier,Monistrol-d'Allier,3.6498601793895418,44.96959700426064
Langogne,Langogne,3.857480960432029,44.73268355112731
Pont-du-Château (FRET),Pont-du-Château,3.2530462373693165,45.78775229336653
Courty,Peschadoires,,
Thiers,Thiers,3.543281416041616,45.86120498207435
Olliergues,St-Gervais-sous-Meymont,3.6368197752882527,45.67289197036282
Allée-de-la-Tour-Rendez-Vous,Villemomble,2.5061735735056545,48.8968204761102
Les Boullereaux-Champigny,Champigny-sur-Marne,2.511791735251545,48.82481590492944
Gargan,Les Pavillons-sous-Bois,2.516953384564724,48.908396356733945
Pantin,Pantin,2.4002451048888203,48.89806777482087
Airole,Airole,7.530843378910318,43.8901960603123
Rodange,Rodange,,
Poinson-Beneuvre,Poinson-lès-Grancey,4.9692731872095095,47.68653664626032
Mirebeau-sur-Bèze,Mirebeau-sur-Bèze,5.320745967358132,47.40505574745485
Martigny-les-Bains,Martigny-les-Bains,5.825630946068862,48.108836385821505
Bains-les-Bains,Le Clerjus,6.29523874819176,47.98122992977394
Châtel-Nomexy,Nomexy,6.387540083828063,48.30712626879246
Jarménil,Jarménil,6.5709084797963575,48.11699267533678
Vincey,Portieux,6.335742699948293,48.34329216369198
Bannes,Bannes,5.394697800787737,47.908371116469745
Igney,Igney,6.39951145740775,48.2709178730211
Chaligny-Neuves-Maisons,Neuves-Maisons,6.099534852575643,48.61354630347298
Bainville-sur-Madon,Bainville-sur-Madon,6.09954060367336,48.585995150176565
Forcelles-St-Gorgon,Forcelles-St-Gorgon,6.108601952192017,48.45425821565252
St-Clément-Laronxe,St-Clément,6.608243170212739,48.53130569091152
Pont-St-Vincent,Pont-St-Vincent,6.103442518555855,48.60210347594136
Chenevières,Chenevières,6.632746442850364,48.51952357584712
Vézelise,Vézelise,6.10077558400842,48.48065805383514
Ceintrey,Ceintrey,6.157269716225669,48.52467504061759
Messein,Messein,6.137640767250031,48.612999972879074
Sauvigny,Sauvigny-le-Bois,3.9600837421743593,47.502583523386505
Colombey-lès-Choiseul,Breuvannes-en-Bassigny,5.621595647282257,48.06884765850082
Autrey-lès-Gray,Autrey-lès-Gray,5.483289848019719,47.47500905408718
Villegusien,Villegusien-le-Lac,5.305352529069026,47.729298180961635
Vaux-sous-Aubigny,Vaux-sous-Aubigny,5.293663398887352,47.65749723524279
Châteauvillain,Châteauvillain,4.910824534111432,48.03281276369493
Brion-sur-Ource,Brion-sur-Ource,4.654152741884063,47.91360960668024
Selongey,Selongey,5.204642925138314,47.57527883362542
Merrey,Merrey,5.5948507461972685,48.054002552665395
Châtillon-sur-Seine,Châtillon-sur-Seine,4.575398911895292,47.87533770637097
Dombasle-sur-Meurthe,Dombasle-sur-Meurthe,6.343539333973267,48.62320527996611
Nancy-St-Georges,Nancy,6.195915004843534,48.69537490215697
Emberménil,Emberménil,6.701322692624947,48.61976964611762
Toul,Écrouves,5.877058201318163,48.6784144720613
Dienville,Dienville,4.545021033531774,48.3477123467185
Chigy-Sièges,Chigy,3.464297320705148,48.20011360820708
Brevonnes,Brévonnes,4.400800047413479,48.35852448431866
Hausbergen,Hausbergen,7.726894909285238,48.60600016844813
Domrémy-la-Pucelle,Maxey-sur-Meuse,,
Vitrey-Vernois,Vernois-sur-mance,5.781152544068438,47.83242017101345
Neuilly-l'Évêque,Neuilly-l'Évêque,5.453455729006831,47.91008022288206
Charmoy-Fayl-Billot,Fayl-Billot,5.629208216836325,47.826351231300954
Dieulouard,Dieulouard,6.071541266219483,48.843828676012926
Hortes,Haute-Amance,5.5491448907355965,47.83406259085665
Jonchery,Jonchery,5.090220741971138,48.13400876486615
Vignory,Vignory,5.1241691795765565,48.27058134112792
Bricon,Bricon,4.979065914846915,48.08740381171173
Pompey,Pompey,,
Vitrey-Vernois,Vitrey-Vernois,,
Gironcourt-Houécourt,Gironcourt-sur-Vraine,5.921475513700223,48.310453882627456
Baudricourt,Rouvres-en-Xaintois,6.045678876437175,48.30838345612953
Saulcy,Saulcy-sur-Meurthe,6.951592709075188,48.23804869760785
Ferdrupt,Ferdrupt,,
Lusse,Lusse,,
Ste-Marguerite-Remomeix,Ste-Marguerite,6.982386654912888,48.26289598100528
Haréville-sous-Montfort,Haréville,5.995811877333669,48.20859950681671
Bazoches,Bazoches-sur-Vesles,3.616467770361404,49.30527449855617
Fremifontaine,Fremifontaine,6.7105550597742845,48.27372182728711
La Houssière,La Houssière,6.852950682452898,48.198786773498284
Loupeigne,Loupeigne,3.5325713983058664,49.25417951368723
Muizon,Muizon,3.891856462971212,49.278213876614025
Hielle-Rupt,Rupt-sur-Moselle,,
Pagny-sur-Moselle,Pagny-sur-Moselle,6.025498576324604,48.985121203286035
Onville,Onville,5.981216914241033,49.0132836053572
Baroncourt,Dommary-Baroncourt,5.699743195956633,49.28431643910143
Metz-Chambière,Metz,6.184683133283143,49.12933161366306
Morhange,Morhange,6.6591895522618305,48.9367550080725
Rodalbe,Rodalbe,6.705587240946041,48.91739490508274
Metz-Ville,Metz,6.177376700521012,49.10904770766368
Malling,Malling,6.302209541081356,49.42150514070524
Bettembourg,Bettembourg,6.107870598848104,49.471869653826225
Metz-Ville,Metz-Ville,6.1805685491346845,49.110600468125604
Valleroy-Moineville,Valleroy,5.934437034177995,49.205087800362435
Joudreville,Joudreville,5.775971774935759,49.300266242855656
Jeandelize,Jeandelize,5.788966385138067,49.16357419821693
Béning,Béning-lès-St-Avold,6.828569962775861,49.13823357590087
Conflans-Jarny,Jarny,5.868172604185876,49.16651011869569
Stiring-Wendel,Stiring-Wendel,6.929819800337231,49.20397939257017
Hargarten-Falck,Falck,6.633831856440308,49.21854542046396
Forbach,Forbach,6.901095783296949,49.18947313738372
Bouligny,Bouligny,5.739741523770879,49.29310981362301
Valleroy-Moineville,Valleroy-Moineville,,
Hombourg-Budange,Hombourg-Budange,6.3507668976870475,49.282467153025706
Hettange-Grande,Hettange-Grande,6.15601486276125,49.40816787630707
Gouhenans,Gouhenans,6.477609064301041,47.601054685468725
Zoufftgen,Zoufftgen,6.129498863100598,49.45494088389473
Richemont,Richemont,6.167822572065855,49.280427624059506
Basse-Ham,Basse-Ham,6.234898195489143,49.38057079790666
Distroff,Distroff,6.260227352042514,49.33509539769216
Anzeling,Anzeling,6.4595864076589855,49.262416758195705
Loulans-Les Forges,Loulans-Verchamp,,
Cons-la-Grandville,Cons-la-Grandville,5.705222094766028,49.48578401305181
Noisy-le-Sec,Noisy-le-Sec,2.460347619443059,48.896632450084894
Porte-de-Clichy,Paris-17,2.3148615202399347,48.89401765628809
Montigny-sur-Chiers,Montigny-sur-Chiers,5.655689055380276,49.47431492778664
Mont-St-Martin,Mont-St-Martin,5.786127115687367,49.53486117639584
Réhon,Réhon,5.754667662919685,49.501335111938346
Strasbourg-Ville,Strasbourg,7.731594953278417,48.58287025491015
Audun-le-Tiche,Aumetz,5.9576011720419215,49.47807892201325
Mundolsheim,Mundolsheim,7.7212833665411695,48.644806474930675
Montmédy,Montmédy,5.3717006402748355,49.523093923192405
Spincourt,Spincourt,5.668948263230478,49.331891901632865
Boulange,Boulange,5.95940633677382,49.38782739189187
Strasbourg-Cronenbourg,Strasbourg-Cronenbourg,,
Farébersviller,Farébersviller,6.861820538036603,49.118082461963084
Herbitzheim,Herbitzheim,7.0800442357217905,49.01391073690704
Longwy,Longwy,5.769063219490987,49.51301905537475
Teting,Teting-sur-Nied,6.66473128304083,49.051718849602146
Bliesbrück,Bliesbruck,7.184237568422204,49.11838207945193
Guerstling,Guerstling,6.586201168133787,49.333137999390885
Enchenberg,Enchenberg,7.333601120418804,49.01605930088028
Sarralbe,Sarralbe,7.0374069500017455,48.999518984159785
Ippling,Ippling,7.003461738939482,49.10505617044709
Insming,Insming,,
Oberhoffen-Camp-de-Haguenau,Oberhoffen-sur-Moder,7.855833751799631,48.78915534779691
La Wantzenau,La Wantzenau,7.825074698528731,48.665345212635614
Soufflenheim,Soufflenheim,7.965965246116445,48.823855605792296
Dettwiller,Dettwiller,7.464938345385739,48.75182793740594
Reichstett,Reichstett,7.779225055089903,48.640712661668914
Gambsheim,Gambsheim,7.879260591137476,48.695103897483314
Kilstett,Kilstett,7.855196999735623,48.679576553372144
Stambach,Haegen,7.314368380852362,48.720023345261204
Hattmatt,Hattmatt,,
Graffenstaden,Graffenstaden,,
Gondrecourt-Aix,Gondrecourt-Aix,5.761289692849335,49.24206885045519
Mars-la-Tour,Mars-la-Tour,5.885389766743621,49.09512785290443
Longeville-lès-Metz,Scy-Chazelles,6.127066344465627,49.11029187804407
Vandières,Vandières,6.03900429105896,48.95248679502622
Ancy-sur-Moselle,Ancy-sur-Moselle,6.062761757412355,49.057369949658536
Moutiers,Serrouville,,
Secourt-Solgne,Secourt,,
Marly,Marly,,
Épinay-Villetaneuse,Épinay-sur-Seine,2.328532607427185,48.95796204386307
Dunkerque-Maritime-Mardyck,Dunkerque,2.266700446107813,51.011074141393756
Lille-Jonction-du-Lion-d'Or,Lille,3.0927368344935706,50.64283350760865
Ravezies,Le Bouscat,-0.6043943553989548,44.880620058760755
La Forge,Hesse,7.024188881772426,48.70133435791914
Ars-sur-Moselle,Ars-sur-Moselle,6.077933144586186,49.07423808913142
Zoufftgen (IE),Zoufftgen,6.129087542059962,49.455454088467725
Bénestroff,Bénestroff,6.752318933343902,48.90675626952774
Baudrecourt,Baudrecourt,6.461994196820699,48.96722814456564
Freistroff,Freistroff,6.4913086170482766,49.27740256657128
Florange,Florange,6.1137577931873945,49.3303730731754
Hayange,Nilvange,6.073242998073648,49.33057951169596
Lesse,Lesse,6.505256344333511,48.96608318257879
Château-Salins,Château-Salins,,
Ste-Marie-aux-Mines,Ste-Croix-aux-Mines,7.1975941738111215,48.25467688009597
Schirmeck-La Broque,Schirmeck,7.21594208403017,48.48000390764603
Brouviller-Lixheim,Brouviller,7.14928856830277,48.76582774914843
Bourg-Bruche,Bourg-Bruche,7.1372392818353605,48.36018907228446
Scherwiller,Scherwiller,7.430588256913284,48.28688200794046
Goxwiller,Goxwiller,7.478786397235772,48.432772201969854
Ebersheim,Ebersheim,7.49429557245806,48.30993855235866
Rosheim,Rosheim,7.491321398410758,48.50520974944273
Papéterie,Wasselonne,,
Molsheim,Molsheim,,
Bischtroff-sur-Sarre,Sarrewerden,7.073402556184193,48.90261997277771
Diemeringen,Diemeringen,7.184733758034072,48.94083173304142
Sarrewerden,Sarrewerden,7.085180973911823,48.92203572106063
Domfessel,Domfessel,7.155190614536575,48.95316069927257
Keskastel,Keskastel,7.0490418981036935,48.965393607993505
Schalbach,Schalbach,7.165441635409452,48.81766375506247
Frohmuhl,Frohmuhl,7.277613949012227,48.90756494977408
Loudrefing,Loudrefing,6.881957213096497,48.858129326558846
Moussey (Moselle),Réchicourt-le-Château,,
Schweighouse-sur-Moder,Schweighouse-sur-Moder,7.742619127039893,48.82878820093896
Reichshoffen-Ville,Reichshoffen,7.657962845741934,48.93068997897682
Weyersheim,Weyersheim,7.797037500770732,48.71798070228709
Ingwiller,Ingwiller,7.47674515511438,48.87201085292354
Ettendorf,Ettendorf,7.585783781512022,48.80847275524291
Sélestat,Sélestat,7.442441424608559,48.2606544212921
Haguenau,Haguenau,7.782164542433258,48.81337875664765
Betschdorf,Betschdorf,,
Bouxwiller,Bouxwiller,,
Soucht,Soucht,,
Chennevières-sur-Marne,Chennevières-sur-Marne,2.5259863135785467,48.795661234563816
Parc-des-Expositions,Villepinte,2.514359685972241,48.973320356307404
Sevran-Livry,Sevran,2.5346761624610696,48.9362806402049
Drancy,Drancy,2.4557287461353234,48.93258830271506
Pontfaverger,Pontfaverger-Moronvilliers,4.320139560417968,49.3024773354827
St-Hilaire-le-Petit,St-Hilaire-le-Petit,4.386747957770567,49.267436281198904
Saulces-Montclin,Saulces-Monclin,4.524855685882663,49.57996141364418
Joigny-sur-Meuse,Joigny-sur-Meuse,4.767798406916733,49.83304792527545
Monthermé,Bogny-sur-Meuse,4.7401146171749176,49.86609628373608
St-Souplet-sur-Py,St-Souplet-sur-Py,4.465920784117835,49.233178569907246
Aguilcourt-Variscourt,Variscourt,3.9735146178837346,49.406853144738186
Fumay,Fumay,4.692741480890239,49.98675789635715
Roissy-Aéroport-Charles-de-Gaulle 2-TGV (RER),Roissy-en-France,2.570035507097067,49.0085079715308
Grandpuits-Bagneux,Aubepierre-Ozouer-le-Repos,2.9402211618753635,48.59801199317789
Le Raincy-Villemomble-Montfermeil,Le Raincy,2.5125587589190355,48.88914418923663
Le Puy-Lafayette,St-Georges-d'Aurac,3.541824094845805,45.153951088631366
Marne-la-Vallée-Chessy,Coupvray,2.782675554747206,48.86990906429072
Rosny-Bois-Perrier,Rosny-sous-Bois,2.4813807461811077,48.882585692241776
Val-de-Fontenay,Fontenay-sous-Bois,2.4891910644365387,48.854200570884295
Monteux-les-Escampades,Monteux,4.968476305567076,44.02920905815209
Vebret,Vebret,2.5034065984888723,45.364428475039006
Chailly-Boissy-Le Châtel,Chailly-en-Brie,3.1520107494859926,48.81429882928265
Isles-Armentières,Isles-les-Meldeuses,3.0071216708479773,48.997988736577064
Lagny-Thorigny,Thorigny-sur-Marne,2.7039671517919395,48.882113313739474
Crouy-sur-Ourcq,Crouy-sur-Ourcq,3.0629422391026053,49.091621436664994
Lizy-sur-Ourcq,Lizy-sur-Ourcq,3.031864920341824,49.02179218810581
Montry-Condé,Montry,2.8264014699902487,48.89084863209177
Chézy-sur-Marne,Chézy-sur-Marne,3.3646929731252007,48.99193535604067
La Ferté-Milon,La Ferté-Milon,3.1208227294077444,49.17960194716914
Mouroux,Mouroux,3.0440474515910685,48.813470150235176
Oulchy-Breny,Breny,3.352527882683757,49.1875213601501
Chassigny,Chassigny-sous-Dun,4.303716774255076,46.25028954829424
Les Champs-Forts,Esbly,2.806668280629077,48.89670306919084
Metz-n° 3,Montigny-lès-Metz,6.159869435586502,49.09664824091809
Vallant-St-Georges,Vallant-St-Georges,3.899437846010749,48.46606886875622
St-Thibault (Aube),St-Thibault,4.146872543365672,48.217084263987616
Barbonne-Fayel,Barbonne-Fayel,3.7053785515484368,48.657233003049704
Montmirail,Montmirail,3.5309276840407757,48.872969639261456
Savières,Savières,3.950898252772478,48.404308126778496
Coubert-Soignolles,Coubert,,
St-Étienne-Nozay,St-Étienne-sous-Barbuise,4.104944575910383,48.499989684387096
St-Parres-lès-Vaudes,St-Parres-lès-Vaudes,4.215915011438813,48.17334491337873
Bar-sur-Seine,Bar-sur-Seine,4.381865469038444,48.11715793030451
Gyé-sur-Seine,Gyé-sur-Seine,4.423852055357656,48.02745871957542
Allibaudières,Allibaudières,4.1028829200798365,48.58416717514573
Arcis-sur-Aube,Arcis-sur-Aube,4.128675826570033,48.53272650786575
Herbisse,Herbisse,4.108446322193754,48.62481208058362
Clérey,Clérey,4.180010870420488,48.19522433516302
Piney,Piney,4.334642632818601,48.35821749065035
Jarville-la-Malgrange,Jarville-la-Malgrange,6.202962761753174,48.66998760751356
Brion-Montréal-la-Cluse,Montréal-la-Cluse,5.56210005087742,46.17441317396925
Vulaines-Rigny-le-Ferron,Vulaines,3.6203730478259883,48.23176527186649
Nancy-Ville,Nancy,6.174101796891322,48.68970240439985
Theil-Cerisiers,Pont-sur-Vanne,3.4117136958828347,48.174863204079145
Dammartin-Tigeaux,Dammartin-sur-Tigeaux,2.9256531129734733,48.81045321549016
Joinville-le-Pont,Joinville-le-Pont,2.4636183785317893,48.82003997145228
Maison-Rouge-en-Brie,Lizines,3.1469514881278373,48.53629706692927
Verneuil-l'Étang,Verneuil-l'Étang,2.8248718936253434,48.64451545578106
Champbenoist-Poigny,Poigny,3.287148323732937,48.545487095757096
L'Abbaye,Livry-Gargan,2.5169279476164035,48.922336954947816
Mormant,Mormant,2.888965829078094,48.61368787539386
Nangis,Nangis,3.0128468950222795,48.561358257916574
Gretz-Armainvilliers,Gretz-Armainvilliers,2.72930435756889,48.74481144043109
Sucy-Bonneuil,Sucy-Bonneuil,2.5077750114119235,48.77153419730594
Fontenoy-sur-Moselle,Fontenoy-sur-Moselle,5.9812405769270445,48.712423210010755
Foug,Foug,5.791096876217142,48.67922863357788
Blainville-Damelevières,Blainville-Damelevières,6.391390096823704,48.562011404655216
Toul,Toul,5.885077969110999,48.6806259569182
Merviller-Vacqueville,Merviller,,
Chambley,Chambley-Bussières,5.89603132832387,49.05233197124871
Tucquegnieux,Tucquegnieux,5.904568886037778,49.31381609464818
L'Hôpital (Moselle),L'Hôpital,6.7483672453210675,49.15661649488472
Sarreguemines,Sarreguemines,7.06795583491842,49.10709954906073
Hombourg-Haut,Hombourg-Haut,6.77429829221759,49.12615707140362
Filstroff,Bouzonville,6.553656439785987,49.30794071756678
Piennes,Bouligny,5.768228560331608,49.30273465732325
Hargarten-Falck,Hargarten-Falck,6.636674815811162,49.219763842162855
Conflans-Jarny,Conflans-Jarny,5.87842254738281,49.166079527389094
Bouzonville,Bouzonville,6.532533523216152,49.28897621417657
Mercy-le-Bas-Mainbottel,Mercy-le-Bas,5.749153293650456,49.39709756097935
Viviers-sur-Chiers,Viviers-sur-Chiers,5.633311980413922,49.468837747190655
Strasbourg-Port-du-Rhin,Strasbourg,7.7946375638306415,48.57436622421724
Strasbourg-Neudorf,Strasbourg,7.7435803506019365,48.569315667352456
Stephansfeld,Brumath,7.70454103277437,48.717535590965156
Aumetz,Aumetz,5.9482994599025885,49.4180221613904
Strasbourg-Koenigshoffen,Strasbourg-Koenigshoffen,7.716058288820612,48.573665920914095
Hussigny-Godbrange,Hussigny-Godbrange,,
Reichshoffen-Usines,Reichshoffen,7.652436617456791,48.919432840022075
Zornhoff-Monswiller,Monswiller,7.383659427386037,48.75239173907559
Fegersheim-Lipsheim,Lipsheim,7.672328564968049,48.49080627126732
Geispolsheim,Geispolsheim,7.685083470275863,48.52118957771497
Munchhausen,Munchhausen,8.141046499310963,48.9239315870412
Schirrhein,Schirrhein,7.911674309383877,48.79881506389483
Herrlisheim,Herrlisheim,7.91032804035035,48.727646510990496
Wilwisheim,Wilwisheim,7.5076520421221,48.74591166202856
Seltz,Seltz,8.098150966382955,48.896706059777365
Neuwiller-lès-Saverne,Neuwiller-lès-Saverne,,
Arrancy-sur-Crusne,Arrancy-sur-Crusne,5.662505423868001,49.414237732458886
Pouilly,Pouilly-sur-Meuse,5.116386897503829,49.53646082611989
Wittring,Wittring,7.140819812049894,49.055958481804154
Kalhausen,Kalhausen,7.125250149621928,49.03531146944553
Aulnay-sous-Bois,Aulnay-sous-Bois,2.4940557348556305,48.9322083863861
Le Plessis-Belleville,Le Plessis-Belleville,2.744696378860963,49.09594984152633
Vert-Galant,Villepinte,2.5668153485391163,48.94428616794622
Le Bourget,Le Bourget,2.4266740114572136,48.93079100023168
St-Ouen,St-Ouen,2.322511500997242,48.905246714725244
Ormoy-Villers,Ormoy-Villers,2.8364704413187822,49.1995967421345
Bobigny,Bobigny,2.431052115888343,48.910522487795724
Vaumoise,Coyolles,2.988488393717152,49.23368839057081
St-Valéry-Canal,St-Valery-sur-Somme,1.6581725061764003,50.17438140079825
Achiet,Achiet-le-Grand,2.7806221023317605,50.13214093061863
La Poterie,Rennes,-1.6305840948465853,48.09198766148978
Port-le-Grand,Port-le-Grand,1.7479559427029203,50.15002220525925
St-Josse,St-Josse,1.6482464567524235,50.46224539397645
Béthune,Béthune,2.6404747500458265,50.52096325189028
Les Cauquillous,Lavaur,1.754566424314565,43.73413477690475
Thésée,Thésée,1.312102893838652,47.322131613158504
Abbeville,Abbeville,1.8210262330633884,50.105145478473986
Arras,Arras,2.7691758498833665,50.27984684682835
St-Pol-sur-Ternoise,St-Pol-sur-Ternoise,2.3381752239756413,50.3790842509332
Noeux-les-Mines,Noeux-les-Mines,2.674608644100998,50.483050291721256
Wavrans,Wavrans-sur-Ternoise,2.3002270629525317,50.41446094287299
Verquigneul,Béthune,2.659937977040256,50.501110799253425
Bully-Grenay,Grenay,2.7334545868975875,50.44851956824207
Vimy,Vimy,2.822992264507032,50.37321128408286
Marquillies,Marquillies,2.866180949579939,50.547708306792146
Thiennes,Thiennes,2.4724641947530226,50.65191956984204
Dieval,Diéval,,
Courrières,Harnes,2.9368609474707137,50.456220064735795
Libercourt,Libercourt,3.008776421585093,50.47955213929722
Marly-les-Valenciennes,Marly,3.535189707711709,50.3482728036862
Leforest,Leforest,3.0600518730618433,50.42729369814148
Dourges,Dourges,2.987020801896205,50.43219637796586
Blanc-Misseron,Crespin,3.660962558021376,50.40473569934951
Haulchin-Thiant,Haulchin,3.4327852757334245,50.312494774010716
Prouvy-Thiant,Prouvy,3.459326618700148,50.316254282831174
Douai,Douai,3.0904309147700624,50.37158212907979
Marais-Fresnes,Fresnes-sur-Escaut,,
Le Touquet-Aéroport,Le Touquet-Paris-Plage,1.6181138180360797,50.51458902119114
Pont-de-Briques,St-Étienne-au-Mont,1.6267060552172088,50.682867875823796
Boulogne-Marée,Boulogne-sur-Mer,1.6028399412865109,50.714687878072006
Étaples-Le Touquet,Étaples,1.6432622844045215,50.51676483782315
Feuquerolles,Feuquières-en-Vimeu,1.6053341221324529,50.06482552069153
Fréthun-lès-Calais,Fréthun,1.821532382701235,50.91941916910193
Les Fontinettes,Calais,1.8500285909693648,50.94002000691272
Martainneville-St-Maxent,St-Maxent,,
La Bosse,Labosse,,
Bruay-en-Artois,Bruay-la-Buissière,2.5899524854762848,50.469952674534
Sains-Bouvigny,Bouvigny-Boyeffles,2.684769092698218,50.43735049746189
Valenciennes-Faubourg,Valenciennes,3.5165572321853733,50.35474221421547
La Bleuse-Borne,Anzin,3.518098618427038,50.38614910576885
Millonfosse,Millonfosse,3.3935370561154246,50.435486923327
Beuvrages,Beuvrages,3.5058547936547773,50.389514020355094
Wallers,Wallers,3.3936408340611224,50.38458898670618
Folie-Garage,Beugin,,
Houdain,Houdain,,
Montigny-en-Ostrevent,Montigny-en-Ostrevent,3.1883134137436944,50.361323615409574
Aubigny-au-Bac,Aubigny-au-Bac,3.1582844488689865,50.268474966278646
Sancourt,Abancourt,3.204597235052689,50.23083622494214
Brunémont,Brunémont,3.146083415609879,50.278140840911426
Bertry,Bertry,3.4490246701821023,50.091126642705575
Fontaine-au-Pire,Ligny-en-Cambrésis,3.376660612481345,50.115459018646966
Escaudain,Escaudain,3.3403508038143115,50.318765056496936
Paul-Émile-Victor,Champagnole,5.919809604655678,46.742616266145646
Le Toec,Toulouse,1.4015258177026697,43.59552142796994
Pas-Enchantés,St-Sébastien-sur-Loire,-1.5111470691146225,47.207052760047006
Frêne-Rond,St-Sébastien-sur-Loire,-1.4960494436042044,47.19082056272342
Savigny-sur-Braye (Centre),Savigny-sur-Braye,0.7994082952432086,47.88196438092813
Avenue-Henri-Martin,Paris-16,2.272147611301899,48.864346280061504
Auteuil-Boulogne,Paris-16,2.2599302830012094,48.84829036867814
Le Stade,Colombes,2.2608753687455474,48.93119792775358
Pont-Cardinet,Paris-17,2.3133869249804966,48.887646716558656
Asnières-sur-Seine,Asnières-sur-Seine,2.279306161012174,48.906699460301176
Osny,Osny,2.0578877336805204,49.06293647251203
Chars,Chars,1.936959193648112,49.16261163046981
La Villetertre,Lavilletertre,1.9207315770306796,49.20261024930564
Gisors,Gisors,1.7530344762827892,49.273503992085416
Éragny-Bazincourt,Éragny-sur-Epte,1.776439497863204,49.31639816424103
Bouconvillers,Bouconvillers,1.9082972696179787,49.17551533588942
Magny-en-Vexin,Magny-en-Vexin,,
Bray-Ecos,Fourges,1.6540129933884238,49.13634652233291
Mantes-la-Jolie,Mantes-la-Jolie,1.7039387229313567,48.98941752668638
Issou-Porcheville,Issou,1.785383316815691,48.97925064130272
Achères-Ville,Achères,2.077781536261871,48.97011445875165
Maule,Maule,1.8573183430267763,48.90924271422782
Argenteuil,Argenteuil,,
Cormeilles-en-Parisis,Cormeilles-en-Parisis,2.1933802151772333,48.968388207390454
Bécon-les-Bruyères,Asnières-sur-Seine,2.2688125488357804,48.90516953339948
Suresnes-Puteaux,Suresnes,2.2299303586411403,48.87917733878143
La Défense,Puteaux,2.2384716845345998,48.89343723770491
Sèvres-Ville-d'Avray,Sèvres,2.200787293018457,48.827411760340404
La Celle-St-Cloud,La Celle-St-Cloud,2.138194315944331,48.84266506736513
Pont-de-St-Cloud,St-Cloud,2.2216520723666258,48.842233136007465
Pont-de-Sèvres,Sèvres,2.2254974239714587,48.828819819545096
St-Germain-Grande-Ceinture,St-Germain-en-Laye,2.072918440915781,48.90359235418844
Sembadel,Sembadel,3.7218114461343967,45.276599571902466
Darsac,Vernassal,3.7378808814125017,45.14159616180081
Borne,Borne,3.795225739305719,45.10051669269214
Chamalières-sur-Loire,Chamalières-sur-Loire,3.9925590299784255,45.20599098230012
Brives-Charensac,Brives-Charensac,3.924383267693482,45.043463938696725
Landos,Landos,3.8348918382690336,44.8391054001258
Monceaux-le-Comte,Châtin,3.8699236756490056,47.09113233261515
Chambéry-Challes-les-Eaux,Chambéry-Challes-les-Eaux,,
Brison-St-Innocent,Brison-St-Innocent,5.879935213939352,45.753467892129834
Voglans,Voglans,5.8923436272604235,45.62717140333669
Chignin-les-Marches,Chignin,6.0048706342215405,45.51566899849392
St-Pierre-d'Albigny,St-Pierre-d'Albigny,6.1563337401000275,45.55716515189757
Argentine,Argentine,6.305491134656367,45.50104031372211
Cognin,Cognin,5.891178531749286,45.56281306789747
Aiguebelette-le-Lac,Aiguebelette-le-Lac,5.81315664072179,45.536220164462115
Lépin-le-Lac-La Bauche,Lépin-le-Lac,5.765188064755025,45.541635871651046
La Bridoire,La Bridoire,5.747908168403527,45.53033829597725
Virieu-le-Grand-Belley,Virieu-le-Grand-Belley,5.6540596798672285,45.848475804190464
Frontenex,Frontenex,6.314324090541986,45.63048107461825
Albertville,Albertville,6.372548716712411,45.66916626382764
Cevins,Cevins,6.448279343251295,45.59573677943257
Moûtiers-Salins-Brides-les-Bains,Moûtiers,6.531548657040216,45.486490452651346
Faverges,Faverges,6.293509920162691,45.75184205644558
Chambéry-Poste-Bois,La Ravoire,5.963873811729081,45.53907394725733
Ambronay-Priay,Ambronay,5.338093017081637,46.01158597848446
Simandre-sur-Suran,Simandre-sur-Suran,5.421157705901726,46.220267861044405
Nurieux,Nurieux-Volognat,5.533214675860809,46.183944541283616
Martignat,Martignat,5.608064915052267,46.211175614726564
Jeurre-Vaux,Vaux-lès-St-Claude,5.719415516866253,46.36528190407801
Chassal,Chassal,5.786038482557429,46.36083497801469
La Burbanche,La Burbanche,5.534794022381859,45.86920805878814
Rossillon,Rossillon,5.595709321566025,45.82891089192192
Bellegarde,Bellegarde-sur-Valserine,5.8234616148800935,46.109976959514405
Longeray-Léaz,Léaz,5.8850108375670525,46.11190790885526
Paradis,Collonges,5.9289623977061074,46.14953134022832
Greny,Péron,5.944474940546602,46.198429182955344
Sergy-St-Genis,Sergy,6.011042452926369,46.249259770422924
Gex,Gex,6.063270063685737,46.33308102936919
Grilly,Grilly,6.1140641025512,46.33209288036278
Les Chartreux,Voreppe,5.635759190428308,45.285246433994686
Perrignier,Perrignier,6.425947054459164,46.304177665208066
Allinges-Mesinges,Allinges,6.437931050329992,46.32765754169032
Thonon-les-Bains,Thonon-les-Bains,6.482718549845308,46.36919304433496
Charix-Lalleyriat,Lalleyriat,5.687353461337433,46.1671331925712
Anglefort,Anglefort,5.8237044619586555,45.914905684894244
Chêne-Bourg,Genève-Eaux-Vives,6.1958609707809424,46.19673777980009
St-Martin-Bellevue,St-Martin-Bellevue,6.157629382378478,45.96809310192846
Cluses,Cluses,6.582707514462018,46.06140228050519
Magland,Magland,6.621201466016068,46.016930329818535
Reignier,Reignier-Ésery,6.267390356002816,46.12559078090492
Chedde-Voie-Étroite,Passy,6.719875125684912,45.92632023306807
Taconnaz,Les Houches,6.826163255122991,45.89940561382989
Les Bossons,Chamonix-Mont-Blanc,6.839176062505559,45.906801626204796
Les Tines,Chamonix-Mont-Blanc,6.899188118399412,45.95080962972507
Montroc-le-Planet,Chamonix-Mont-Blanc,6.934410352799013,45.996101234185716
Châbons,Châbons,5.428172701615481,45.437687702161426
Le Grand-Lemps,Le Grand-Lemps,5.423517625896945,45.39606641081278
Rives,Rives,5.491635721739623,45.35817446902182
Réaumont-St-Cassien,Réaumont,5.535722965823848,45.36884047819984
Voiron,Voiron,5.595495375221777,45.36352970021802
St-Jean-de-Moirans,St-Jean-de-Moirans,5.573583092037487,45.34358579200132
St-Égrève-St-Robert,St-Égrève,5.671078139085872,45.23507262058304
Grenoble-Université-Gières,Gières,5.784641753561917,45.18496770760198
Grenoble-Université-Gières,St-Martin-d'Hères,5.784641753561917,45.18496770760198
St-Martin-de-la-Cluze,St-Martin-de-la-Cluze,5.649448060833057,44.99105467273196
Percy,Percy,5.632910408337362,44.79638343824728
Genève-Voyageurs,Genève-Eaux-Vives,6.14251825848558,46.21173453806879
Marseille-St-Charles,Marseille-St-Charles,,
Marseille-St-Charles,Marseille-01,5.380843379830792,43.303283162663604
Château-Arnoux-St-Auban,Château-Arnoux-St-Auban,5.997389026321209,44.06103192413043
Villeneuve,Villeneuve,5.87340985920223,43.885493530414564
Manosque-Gréoux-les-Bains,Manosque,5.793010163891369,43.82273989930209
Venelles,Venelles,5.473846673497313,43.58562600710154
Gardanne,Gardanne,5.466515452194519,43.460329249403635
Champtercier,Digne-les-Bains,6.1792038298577525,44.072640508820975
Peynier-Rousset,Peynier,5.62733960074842,43.46347753271616
Le Canet,Marseille-14,5.383530155472541,43.3336613916848
La Penne-sur-Huveaune,La Penne-sur-Huveaune,5.5155538408980345,43.284789141416624
Septèmes,Septèmes-les-Vallons,5.370046478791312,43.4031556576517
Marseille-Maritime-Voies-des-Quais,Marseille-02,,
Marseille-Maritime-Canet,Marseille-15,5.369018114640687,43.32908489098946
Marseille-Maritime-Arenc,Marseille-Maritime-Arenc,5.363225167689771,43.32121597952328
Miramas,Miramas,4.999633306223617,43.58092533768178
Berre,Berre-l'Étang,5.179101685791576,43.50093056891871
Fos-Coussoul,Fos-sur-Mer,4.904849298453765,43.47455074855669
Fos-sur-Mer,Port-de-Bouc,4.974723323859059,43.42808949860721
Fos-Mole-Central,Fos-Mole-Central,4.86999835033828,43.41049270838802
Sausset-les-Pins,Sausset-les-Pins,5.110071485855709,43.33298215277701
Carry-le-Rouet,Carry-le-Rouet,5.153617535032012,43.336683819710224
Niolon,Le Rove,5.257005477918977,43.340115658781215
Le Rove,Le Rove,5.280103425838238,43.352995452088564
Trinquetaille,Arles,4.62411158976191,43.68369372730216
Lamanon,Lamanon,5.091458171829456,43.699972796526396
Carnoules,Carnoules,6.186682773542318,43.29746760361853
Pignans,Pignans,6.2248882398707135,43.298453499674146
Vidauban,Vidauban,6.433371018012588,43.432173803299214
Les Arcs-Draguignan,Les Arcs,6.482541727033356,43.455612625324456
Pierrepont,Pierrepont,5.707378945461462,49.41676561035437
Rédange (Moselle),Boulange,5.9584468208141885,49.38376806117386
Villerupt-Micheville,Villerupt,,
Audun-le-Tiche,Audun-le-Tiche,,
Écouviez,Écouviez,,
Ste-Fontaine,Freyming-Merlebach,6.776365671582128,49.15744454925797
Blies-Ebersing,Blies-Ébersing,7.14768722281053,49.12092380509129
Faulquemont,Faulquemont,6.603766395611025,49.045485943947256
Creutzwald,Creutzwald,6.673892209155985,49.194739197246115
Carling,Carling,6.716858603695414,49.170559590847425
Longuyon,Longuyon,5.613030828108409,49.440602988301144
Kappelkinger,Kappelkinger,,
Schwindratzheim,Schwindratzheim,7.60067795014709,48.75358419451172
Mommenheim,Mommenheim,7.642682831064142,48.755516426778925
Hochfelden,Hochfelden,7.572162441093835,48.75513791652814
Brumath,Brumath,7.700197614664153,48.732999541115205
Vendenheim,Vendenheim,,
Graffenstaden,Geispolsheim,7.690042773007832,48.532952156814844
Rountzenheim,Auenheim,8.011781791876578,48.820445763283004
Bischheim,Schiltigheim,7.74183761330786,48.61190337769996
Steinbourg,Steinbourg,7.415056377008995,48.7635436484065
Roppenheim,Beinheim,8.05980690889564,48.8496087685019
Limersheim,Hipsheim,7.6596822534179685,48.46072588082999
Saverne,Saverne,7.362064585704122,48.74464267560709
Barenton-Bugny,Barenton-Bugny,3.6559879746756794,49.63058522655167
Les Guides,Feignies,3.905701492882111,50.27525550512895
Ruesnes,Ruesnes,3.5991990112992904,50.26662891712062
Curgies,Curgies,3.6087452915918523,50.33004758512784
Marly-Gomont,Marly-Gomont,,
Autreppes,Autreppes,,
Obrechies,Obrechies,,
Liessies,Liessies,,
Sorbais,Sorbais,,
Montreuil-sur-Mer,Montreuil,1.7690179047482109,50.46637341957389
Quesnoy-le-Montant,Quesnoy-le-Montant,1.7024171236909251,50.108830008764286
Faubourg-de-Rouvroy,Abbeville,1.807668436205291,50.110616405522705
Caffiers,Caffiers,1.8114816653086032,50.85061405089331
Brimeux,Brimeux,1.831495852912389,50.44705173524253
Chepy-Valines,Chépy,1.6358775250018078,50.068273334840214
Samer,Samer,1.7409536134166048,50.635486110764944
Hesdin,Hesdin,2.0352974490027322,50.37830124171442
St-Riquier,St-Riquier,1.943622440400992,50.128233150147075
Quiéry-la-Motte,Quiéry-la-Motte,2.9817626619771374,50.369968588522084
Loos-en-Gohelle,Lens,2.792160590965308,50.437819114223956
Maulde-Mortagne,Mortagne-du-Nord,3.443184869526689,50.49694847391174
Corbehem,Corbehem,3.040504265536794,50.34299930559739
Liévin,Liévin,2.7711257423592297,50.4340818055316
Lens,Lens,2.827218591200356,50.426978067928964
Denain,Denain,3.3887409472857324,50.334658205076465
Méricourt-sous-Lens,Méricourt,,
Vieux-Rouen-sur-Bresle,Vieux-Rouen-sur-Bresle,1.7244313070322963,49.83254874163378
St-Omer-en-Chaussée,St-Omer-en-Chaussée,1.9969374240896909,49.53018327274132
Balagny-St-Épin,Balagny-sur-Thérain,2.3442465925017246,49.294257290116214
La Chapelle-aux-Pots,Lachapelle-aux-Pots,1.9018195051673812,49.44380321173428
Aumale,Aumale,1.7564136771392924,49.76501021704837
Rochy-Condé,Rochy-Condé,2.1728009385550986,49.398442166444646
Roisel,Roisel,3.0944076334401944,49.950229651402594
Bresles,Bresles,2.2489910326198674,49.415048302956784
Auneuil,Auneuil,1.9927384956991898,49.37495427310735
Amiens,Amiens,2.3570100882630576,49.86254930061453
Froyères-Garage,Choisy-la-Victoire,2.5955113514693693,49.39589038884383
Pont-les-Brie,Villers-Carbonnel,2.9209576931324923,49.87583615685502
Buire-sur-l'Ancre,Buire-sur-l'Ancre,2.5994564439377417,49.965141731131354
Villers-Faucon,Villers-Faucon,3.1097644811533267,49.976548009585116
Breuil-le-Sec,Breuil-le-Sec,2.455204803789692,49.37795106149175
Gezaincourt,Gézaincourt,2.316425511158238,50.13623441043849
Brombos-Sarcus,Brombos,1.8802964797335504,49.65435590596418
Famechon,Famechon,2.044407900245912,49.767676648548964
Daours,Daours,2.459621713897595,49.899552147846954
Ronquerolles,Agnetz,,
Longpré-les-Corps-Saints,Longpré-les-Corps-Saints,2.0031922270628044,50.011439123217535
Hargicourt-Pierrepont,Hargicourt,2.5318312921201724,49.713653795717704
Poix-de-Picardie,Poix-de-Picardie,1.9898669231650168,49.77792279096178
Péronne-Flamicourt,Doingt,2.9417612620697438,49.92811478962688
Clermont-de-l'Oise,Clermont,2.417217353304942,49.38565247605914
Longueau,Longueau,2.352175074136352,49.86378875504405
Moreuil,Moreuil,2.4754535421531783,49.777092276970436
Albert,Albert,2.6445825768955653,50.00586126934948
Saleux,Saleux,2.2268359682747243,49.862626503215616
Canaples,Canaples,,
Neufchâtel-Hardelot,Neufchâtel-Hardelot,1.6427956358126443,50.623354305083154
Outreau,St-Étienne-au-Mont,1.6115011186009922,50.6882402763665
Gaillefontaine,Longmesnil,1.6228652941625559,49.62695566093482
Pihen,Pihen-lès-Guînes,1.7859145450816545,50.87315580206878
Carly,Carly,1.7026069415118654,50.649642419888174
Moliens,Moliens,1.8038737300543977,49.6635020588625
Authieule,Doullens,,
Dives-sur-Mer-Port-Guillaume,Dives-sur-Mer,-0.1008754079992636,49.29102730893448
Bibliothèque-François-Mitterrand,Paris-13,2.3797421214178587,48.827247946268514
Vernier-Meyrin,Genève-Eaux-Vives,6.0777247624286135,46.222373320656224
Ponts-et-Marais,Ponts-et-Marais,1.4425573548761434,50.04088540254265
Rethel,Rethel,4.370261280952036,49.504633793931674
Amagne-Lucquy,Amagne-Lucquy,4.463417712599302,49.52262777832305
Fère-en-Tardenois,Fère-en-Tardenois,3.5039650300865546,49.208718963638496
Rilly-la-Montagne,Rilly-la-Montagne,4.040905519057281,49.16647916815051
Reims-St-Léonard,St-Léonard,4.103140399912199,49.223311274742244
Avenay,Avenay-Val-d'Or,4.0435162820162684,49.0646923037864
Sept-Saulx,Sept-Saulx,4.256996396193811,49.15113148626446
Breuil-Romain,Breuil,3.7668780249942966,49.30838139470338
Epernay,Épernay,3.960087913233235,49.046417869941855
Fismes,Fismes,3.6825129600053934,49.31092384327647
Bazancourt,Bazancourt,4.194537013547738,49.361694885942036
Reims,Reims,4.023685509962517,49.258671188152796
Le Châtelet,Le Châtelet-sur-Retourne,4.280167528880485,49.418968612046115
Pont-Maugis,Noyers-Pont-Maugis,4.9553842398008205,49.669934027806406
Rouvroy-l'Échelle,L'Échelle,4.492167007592988,49.790384573484005
Novion-Porcien,Novion-Porcien,4.409693432625068,49.58430146777195
Wasigny-La Neuville,Wasigny,4.34689990007644,49.62402220598032
Carignan,Carignan,5.168335867304816,49.628530475156644
Tournes,Tournes,4.627943655912602,49.793232912357084
Blagny,Blagny,5.189218780985274,49.61985028140475
Tagnon,Tagnon,4.296827598331065,49.439083899341384
Linay,Linay,5.223627451130074,49.61389388777192
Vitry-le-François,Vitry-le-François,4.587514744819615,48.71778308956657
Mourmelon-le-Petit,Mourmelon-le-Petit,4.317833475946308,49.13130217130067
Vivier-au-Court,Vivier-au-Court,4.835919273596099,49.729958687067096
Brieulles-sur-Meuse,Brieulles-sur-Meuse,5.187205661354313,49.33558780303267
Stenay,Laneuville-sur-Meuse,5.170814631984934,49.493805074572684
Jalons-les-Vignes,Jâlons,4.18793918511172,49.01173369676589
Mouzon,Mouzon,5.069089194462989,49.60408051933817
Oiry,Oiry,4.039245065493115,49.027602166481344
Vienne-la-Ville,Vienne-la-Ville,,
Cornay-Fléville,Fléville,,
Remilly-Aillicourt,Remilly-Aillicourt,4.989834517016497,49.655402070176066
Vouziers,Savigny-sur-Aisne,4.7058512413464335,49.389481516129656
Challerange,Challerange,4.744000413053636,49.30605909582469
Aubenton,Aubenton,4.198983911231305,49.83382983179426
Liart,Liart,4.335391598446346,49.77036003975778
Maubert-Fontaine,Maubert-Fontaine,,
Raucourt,Raucourt-et-Flaba,,
Autry,Autry,,
St-Hilaire-au-Temple,St-Hilaire-au-Temple,4.379296411934363,49.05590281849361
Morains-le-Petit,Val-des-Marais,3.983460499865324,48.813105236270616
Mesnil-sur-Oger,Le Mesnil-sur-Oger,4.031970477798809,48.94915731226969
Vertus,Vertus,4.0094802037191535,48.9025432372245
Fronville-St-Urbain,Fronville,5.156134031814641,48.40073145861561
Longeville-Meuse,Longeville-en-Barrois,5.216308096468347,48.74417858417647
Linthes-Linthelles-Pleurs,Linthes,3.853163161032545,48.725439655880834
Fère-Champenoise,Fère-Champenoise,3.9827098243422365,48.76217372230453
Cuperly,Cuperly,4.45859283552388,49.06055042221418
Suippes,Suippes,4.543216720152278,49.12006402563912
Poissons-Noncourt,Poissons,,
Villers-Daucourt,Châtrices,,
Raphèle,Arles,4.711260206600066,43.64271839748008
St-Martin-de-Crau,St-Martin-de-Crau,4.800261847043873,43.622225286059674
Sénas,Sénas,5.0732276441151685,43.740893109066974
Port-St-Louis-du-Rhône,Port-St-Louis-du-Rhône,4.804363369361557,43.398914412992674
Fos-Graveleau (IE),Arles,4.639423757863535,43.64199306956056
St-Cyr-les-Lècques-La Cadière,St-Cyr-sur-Mer,5.703752554715747,43.185366704233644
Ollioules-Sanary-sur-Mer,Ollioules,5.825090288335952,43.12242680804685
La Pauline-Hyères,La Garde,6.035507873654393,43.13679694448489
La Farlède,La Farlède,6.053376852090943,43.16318375994192
Cuers-Pierrefeu,Cuers,6.085667620378097,43.23636042997404
Tourves,Tourves,5.917655921432053,43.412345900854966
Draguignan,Draguignan,6.46629673752532,43.53352157915339
Villefranche-sur-Mer,Villefranche-sur-Mer,7.314163989149045,43.70695224551981
Cap-Martin-Roquebrune,Roquebrune-Cap-Martin,7.457594160599158,43.76062806738101
Menton,Menton,7.493105297896564,43.774557541650324
Menton-Garavan,Menton,7.51722980153584,43.785235314456244
Boulouris-sur-Mer,St-Raphaël,6.808573351979594,43.416324328377
Cannes,Cannes,7.0187259883165085,43.55401070550097
Picon-Busserine,Marseille-14,5.393295152644856,43.331422796961384
St-Rambert-d'Albon,St-Rambert-d'Albon,4.809705244545719,45.29981303378477
St-Vallier-sur-Rhône,St-Vallier,4.814554754094829,45.18564941774933
Tain-l'Hermitage-Tournon,Tain-l'Hermitage,4.839863623624745,45.072287669882186
La Roche-de-Glun,La Roche-de-Glun,4.863644947971583,45.00072463067556
Livron,Livron-sur-Drôme,,
Eurre,Livron-sur-Drôme,4.839471927407094,44.76675253037306
Beaurepaire,Beaurepaire,5.0576130503605965,45.330627288652366
Marcilloles,Marcilloles,5.185767585716673,45.341273925555114
Sarras,Sarras,4.801859731363937,45.18728128640912
Vion,Vion,4.806839765739209,45.11276417909665
Romans-Bourg-de-Péage,Romans-sur-Isère,5.049639169736672,45.04899423794729
Vinay,Vinay,5.410099169143679,45.2079827668088
Pont-de-Quart-Châtillon,Aix-en-Diois,5.4022910501367845,44.712535087085904
Recoubeau,Recoubeau-Jansac,5.421171029941144,44.6619044396772
Barchetta,Volpajola,9.367258644422074,42.507483298927326
Biguglia,Biguglia,9.438101091555913,42.6138175868819
Borgo,Borgo,9.446161378883415,42.55978635951058
Francardo,Omessa,9.193375564068509,42.40720038355514
Le Regino,Speloncato,8.96657445808832,42.6002543915368
Soveria,Soveria,9.175423992121699,42.35835221564075
Tattone,Vivario,9.1526302357171,42.152560226176696
Sant'-Ambroggio,Lumio,8.838204495589073,42.601185021894544
Davia,Corbara,8.885875334037891,42.62403101649601
Ceppe,Biguglia,9.44043385313945,42.62953010071136
Hambach,Hambach,7.046600646934672,49.04547493158146
Bitche,Bitche,7.432562037330348,49.04857118041989
Igney-Avricourt,Avricourt,6.804840515668057,48.646342018524415
Sarre-Union,Sarre-Union,7.084947036223358,48.93586133744758
Lutzelbourg,Lutzelbourg,7.251833009492622,48.729846888344916
Drulingen,Drulingen,7.183056619080273,48.87314027628318
Gondrexange,Gondrexange,6.931297474217322,48.68226601430322
Arzviller,St-Louis,7.187809687482357,48.72392484253338
Ravezies,Ravezies,-0.5971479634173816,44.873480064034545
Réding,Réding,7.094931759458108,48.74280061068625
Vasperviller-St-Quirin,Nitting,,
Phalsbourg,Phalsbourg,,
Lille-Bifurcation-de-la-Justice,Ronchin,3.082309421530541,50.61121867843092
La Ferrière,Charbonnières-les-Bains,4.746768480765692,45.77283365667442
La Plaine-Tramways,St-Denis,2.352369425427268,48.9093835971014
St-Denis,St-Denis,2.34533627653174,48.935908821079785
Épinay-Villetaneuse,Épinay-Villetaneuse,2.3271038630713985,48.95906011170955
Courcelles-sur-Nied,Courcelles-sur-Nied,6.310989071505479,49.0634888049831
Knutange-Nilvange,Nilvange,6.043535822570803,49.341943279955565
Auboué,Auboué,5.970192427814393,49.21595030308611
Metzervisse,Metzervisse,6.283707555699446,49.31802563972744
Rosselange,Rombas,6.071994037921986,49.254004651165026
Joeuf,Joeuf,6.017657524489058,49.225052027701366
Thionville,Thionville,6.159842715329325,49.346979047918225
Hagondange,Hagondange,6.164236514687638,49.25530911597803
Aboncourt,Aboncourt,,
Thiaucourt,Thiaucourt-Regniéville,5.871466014059799,48.956254586876575
Essey-et-Maizerais,Essey-et-Maizerais,5.818840918864139,48.91547639328541
Giraumont-Village,Giraumont,5.921813081077407,49.16535602679902
Batilly,Batilly,5.971846345350173,49.16633828912713
Novéant,Novéant-sur-Moselle,6.052355404407255,49.028165989590846
Guebling,Guébling,6.733290503640152,48.86987375135857
Baroncourt,Baroncourt,5.70521469970164,49.27994118456005
Conthil,Conthil,,
Augny,Marly,,
Alteckendorf,Alteckendorf,7.6039509167451715,48.79099688336554
Kurtzenhouse,Kurtzenhouse,7.8133600953102755,48.74188803934607
Bischwiller,Bischwiller,7.851355674808228,48.765575390214615
Wissembourg,Wissembourg,7.950534638486731,49.03147863013147
Matzenheim,Matzenheim,7.619474990958996,48.39883366259973
Walbourg,Walbourg,7.809328235745367,48.88591636060573
Hunspach,Hunspach,7.954017147393979,48.96146227210944
Hoffen,Hoffen,7.9333343422803635,48.931220382232866
Meisenthal,Meisenthal,,
Lembach,Lembach,,
Lutzelhouse,Muhlbach-sur-Bruche,7.294179308049222,48.51807404494721
Duttlenheim,Dachstein,7.566239496050477,48.54543654154971
Eichhoffen,Eichhoffen,7.449548775348854,48.38251568261649
Wisches,Wisches,7.270155332950563,48.50747318538789
Erstein,Erstein,7.638508175326063,48.423295884728546
Barr,Barr,7.456999566070088,48.403288085165464
Soultz-les-Bains,Soultz-les-Bains,,
Avolsheim,Avolsheim,,
Kirchheim,Kirchheim,,
Enghien-les-Bains,Enghien-les-Bains,2.306453598474992,48.97323447038806
Villeparisis,Mitry-Mory,2.6028477267612797,48.953093201420536
Les Prés-Roseaux,Villers-St-Paul,2.5040163894231178,49.29032688758329
La Redonne-Ensuès,Ensuès-la-Redonne,5.1975967898016435,43.33435329028057
Salon,Salon-de-Provence,5.088449456368936,43.63903995373267
Mas-Thibert,Arles,4.724187190803828,43.559841848159294
Toulon,Toulon,5.929717733657508,43.12858683541123
Bandol,Bandol,5.749815526229215,43.14049104834873
La Garde,La Garde,6.010088274585391,43.11864738966461
Puget-Ville,Puget-Ville,6.138071300395093,43.282707633283174
Le Muy,Le Muy,6.573425744582191,43.47030445389205
La Plage-d'Hyères,Hyères,6.1528348791371,43.085459051066934
Besse,Besse-sur-Issole,6.175558826036947,43.336959557436636
Forcalqueiret-Gareoult,Forcalqueiret,6.093597436571622,43.34375958061858
Brignoles,Brignoles,6.056398736401828,43.40602344069063
Les Censies,Brignoles,6.001938285695701,43.403257500140036
St-Maximin,St-Maximin-la-Ste-Baume,5.8653581829804535,43.44592605353765
St-Laurent-du-Var,St-Laurent-du-Var,7.1945351228996826,43.662303986870974
Monaco-Monte-Carlo,Monaco,7.419172085586322,43.73814223987554
La Trinité-Victor,La Trinité,7.311738263945731,43.742911879638754
Peille,Peille,7.380069988960343,43.791936473064396
Breil-sur-Roya,Breil-sur-Roya,7.516574264591073,43.944432082643296
St-Dalmas-de-Tende,Tende,7.585771131238855,44.05650060863687
Cannes-la-Bocca,Cannes,6.9863380602821215,43.549032431081606
Attignat,Attignat,,
Andancette,Andancette,4.808821975011154,45.24228857901041
Lucciana,Lucciana,9.448430876252806,42.54266660363516
Étoile,Étoile-sur-Rhône,4.865247218627403,44.8451752536032
Loriol,Loriol-sur-Drôme,4.816948130049003,44.754434398743
Izeaux,Izeaux,5.425695411314986,45.344744701233346
St-Péray,St-Péray,4.850547552231502,44.947842962255294
Soyons,Soyons,4.851399230422907,44.89077860077649
Charmes-St-Georges-les-Bains,Charmes-sur-Rhône,4.835901636516595,44.860166399642495
Alixan-Châteauneuf-d'Isère,Châteauneuf-sur-Isère,4.988404541869791,45.002139226471975
St-Paul-lès-Romans,St-Paul-lès-Romans,5.134414677782939,45.07152893029159
Lesches-Beaumont,Luc-en-Diois,5.484424206383264,44.580134590153456
Ponte-Nuovo,Castello-di-Rostino,9.281745313771296,42.48228918115858
Tavera,Tavera,9.00850136348239,42.06917839294759
Venaco,Venaco,9.17541024255614,42.23440281419909
Ucciani,Ucciani,8.978860040479477,42.051808734334955
Mareil-Marly,Mareil-Marly,2.0790437207054957,48.88079697768339
Versailles-Rive-Droite,Versailles,2.1356905224006497,48.80960686623229
Massy-Verrières,Massy,2.2733642046600515,48.73477965839578
Paris-St-Lazare,Paris-St-Lazare,2.326303315694158,48.87693884103283
Vernouillet-Verneuil,Verneuil-sur-Seine,1.9831069249616504,48.98136837007953
Les Clairières-de-Verneuil,Verneuil-sur-Seine,1.9604226449922408,48.99124033138956
Épône-Mézières,Épône-Mézières,1.8112016087027007,48.963436431541645
Évreux-Embranchement,Évreux-Embranchement,1.1549556519881148,49.019451957499115
Bueil,Bueil,1.4437909400520703,48.925094352024956
Arnières-sur-Iton,Arnières-sur-Iton,1.1013358222494327,48.99606707251819
Beaumont-le-Roger,Beaumont-le-Roger,0.7728994121383057,49.07417134918096
Prey,Prey,1.219823612713864,48.95847836923088
Avrilly,Avrilly,1.1577728091332176,48.92651450187523
Breteuil,Breteuil,0.9205112454100588,48.83150788915903
Quittebeuf,Quittebeuf,,
Le Neubourg,Le Neubourg,,
Lyre,La Vieille-Lyre,,
Pacy-sur-Eure,Pacy-sur-Eure,1.3879579911905626,49.014172094605456
Menilles,Ménilles,1.3669764206621138,49.03142179692171
Chambray-Fontaine-sous-Jouy,Jouy-sur-Eure,1.3285958986657158,49.05631568485854
Paris-Montparnasse-Pasteur,Paris-15,2.31814302163037,48.839212873467815
Morre,Morre,6.067525527698582,47.22582216804058
Ouest-Ceinture,Paris-15,2.3048519141221524,48.828588377761726
Montrouge-Châtillon,Châtillon,2.3023895031719017,48.80889377557226
Invalides,Paris-07,2.313424355031458,48.862994521487636
Pont-de-l'Alma,Paris-07,2.3003818271134526,48.86246272798137
Champ-de-Mars-Tour-Eiffel,Paris-15,2.2898153617308967,48.856562037200575
Sèvres-Rive-Gauche,Sèvres,2.2148224414750133,48.82111096815825
Antony,Antony,2.3009640152581423,48.75497405313983
Porchefontaine,Versailles,2.151756215590128,48.796572564098156
Palaiseau-Marchandises,Palaiseau,2.2456266217671432,48.71697528340312
Orsay-Ville,Orsay,2.179918293044099,48.6972966056382
Le Perray,Le Perray-en-Yvelines,1.8564822205061056,48.69298365102392
Pont-du-Garigliano Hôpital-Georges-Pompidou,Paris-15,2.2704801891641755,48.83915148467825
Gif-sur-Yvette-Marchandises,Gif-sur-Yvette,2.1343853712358944,48.69795306486953
Beynes,Beynes,1.875845691637385,48.85939063028636
St-Georges-Motel,St-Georges-Motel,1.3615955884531978,48.786894888335155
Igny,Igny,2.2310290244226727,48.74012266631672
Verneuil-sur-Avre,Verneuil-sur-Avre,0.9293261486834166,48.742723179319356
Villiers-Neauphle-Pontchartrain,Villiers-St-Fréderic,1.877545105122548,48.81527539849273
Chartres,Chartres,1.4692511025181942,48.44657616436999
Courville-sur-Eure,Courville-sur-Eure,1.2348834002330062,48.45158963723648
Pontgouin,Pontgouin,1.1417600670465908,48.47803747669013
Bretoncelles,Bretoncelles,0.8924610680299124,48.43275436557967
La Taye,St-Georges-sur-Eure,1.3736807014831298,48.4079057147229
Bailleau-le-Pin,Bailleau-le-Pin,1.3248387431509538,48.36686369862696
Brou,Brou,1.160434237543858,48.21560010971405
Bailleau-l'Évêque,Bailleau-l'Évêque,1.4071706080109552,48.49425086139575
Clévilliers,Clévilliers,1.3772810610094417,48.551561161470474
Chêne-Chenu,Tremblay-les-Villages,1.2980900303093608,48.58479258840916
Nogent-le-Roi,Nogent-le-Roi,,
Le Mans,Le Mans,,
Neuville-sur-Sarthe,Neuville-sur-Sarthe,0.19979014704471845,48.07039776072107
Piacé-St-Germain,St-Germain-sur-Sarthe,0.08216430083208566,48.26132188794215
La Hutte-Coulombiers,Coulombiers,0.10574605046187864,48.303313054442256
Montfort-le-Gesnois,Montfort-le-Gesnois,0.4065333799511941,48.040585156941496
Connerré-Beillé,Beillé,0.4869666639783437,48.07384329531561
St-Georges-Étival,St-Georges-du-Bois,0.11287301006258806,47.95878275908101
Noyen,Noyen-sur-Sarthe,-0.09848226566781336,47.87467624834712
Villaines,Villaines-sous-Malicorne,-0.09703107731553774,47.7656522808906
Mayet,Mayet,0.2659375327441477,47.760085237711976
Le Tanchet-Lublé,Lublé,0.2457176580015959,47.52455144907339
Pont-de-Braye,Lavenay,0.6904035249739051,47.770038730801495
Lavenay,Lavenay,0.7114334138285858,47.78752054405017
Bessé-sur-Braye,Bessé-sur-Braye,0.7477611545177889,47.830217013149536
Sargé-sur-Braye,Sargé-sur-Braye,0.8428355228663486,47.91914622099148
Mondoubleau,Mondoubleau,0.8923375206239952,47.98426119421902
Maresché,Maresché,0.18068592432020275,48.198644806047405
Brulon,Brûlon,,
St-Aubin-la-Bruère,La Bruère-sur-Loir,0.3765658113969113,47.653109930376864
Aytré-les-Minimes,Aytré,-1.1374290146604535,46.13188903086057
Rouen-Martainville,Sotteville-lès-Rouen,1.1085556177975415,49.438570620868454
Elbeuf-St-Aubin,St-Aubin-lès-Elbeuf,1.0104007811696616,49.30276778901842
Pavilly-Station,Pavilly,0.9505499447413559,49.56401844613743
Forges-les-Eaux,Forges-les-Eaux,,
Morgny,Morgny-la-Pommeraye,1.2478006106475579,49.523175878440505
Longuerue-Vieux-Manoir,Vieux-Manoir,1.276733910125994,49.556788208426134
Montérolier-Buchy,Montérolier,1.3360760599669417,49.603288560518415
Sommery,Sommery,1.4357767694916868,49.62946306445018
La Mailleraye-sur-Seine,St-Wandrille-Rançon,0.7878219127656853,49.501434688426755
St-Valéry-en-Caux,St-Valéry-en-Caux,0.7131092604517792,49.8610654958855
Nolleval-la-Feuillie,Nolléval,,
Le Havre,Le Havre,0.12605841732600767,49.49269563728243
Bréauté-Beuzeville,Bréauté,0.4169155302282949,49.60345308049904
Yvetot,Yvetot,0.7501274750114086,49.62220857990936
Lillebonne,Lillebonne,0.5282595331103725,49.520161371428536
Grainville-Ymauville,Grainville-Ymauville,0.4071318149633255,49.656206805240316
Harfleur-Halte,Harfleur,0.19217989665721746,49.50601792492922
Jacques-Monod-La Demi-Lieue,Montivilliers,0.1859652046169117,49.526999245871345
Montivilliers,Montivilliers,0.18938905311993248,49.54285747182161
Épouville,Épouville,0.22352701184604834,49.56358541381649
Turretot,Turretot,0.2279429759896024,49.61376612616952
Criquetot-l'Esneval,Criquetot-l'Esneval,0.27006998111831865,49.64282374163738
Dieppe,Dieppe,1.0791737236794958,49.913876186251116
Mesnières-en-Bray,Mesnières-en-Bray,1.3794433285525558,49.76093074068697
Neufchâtel-en-Bray,Neufchâtel-en-Bray,1.4355024449527305,49.73335084232835
St-Aubin-sur-Scie,St-Aubin-sur-Scie,1.0665772837384753,49.8707884314073
Martin-Église,Martin-Église,1.1472001780847916,49.90370895122111
Sauchay-Bellengreville,Sauchay,1.20590171494187,49.91154014622518
Glos-Montfort,Glos-sur-Risle,0.6829150130851616,49.27128952170587
Roquebrune-sur-Argens,Roquebrune-sur-Argens,6.63878723769759,43.45783344170489
Puget-sur-Argens,Puget-sur-Argens,6.6823107357542835,43.45408664909894
La Crau,La Crau,6.0687431005803525,43.14487223857758
Hyères,Hyères,6.124135584381193,43.10872509118549
Ste-Anastasie-Garage,Ste-Anastasie-sur-Issole,6.131342915699685,43.3421438356751
La Motte-Ste-Rosseline,La Motte,6.514909433623959,43.48065342240392
Villeneuve-Loubet-Plage,Villeneuve-Loubet,7.134308892748472,43.6295556593794
Hippodrome-de-la-Côte-d'Azur,Cagnes-sur-Mer,7.14163301255871,43.649451218746776
Cagnes-sur-Mer,Cagnes-sur-Mer,7.148336597291082,43.65766293778494
Beaulieu-sur-Mer,Beaulieu-sur-Mer,7.331810867434681,43.706690470003394
Drap-Cantaron,La Trinité,7.316939479711957,43.75988022243699
Touët-de-l'Escarène,Touët-de-l'Escarène,7.3646684919829,43.84703661020428
La Brigue,La Brigue,7.603034286339612,44.06252385171182
Tende,Tende,7.594321708601798,44.08988893464372
Vintimille,Vintimille,7.607720022172546,43.79367650620262
Fréjus-St-Raphaël,Fréjus,6.755382514698112,43.42874760189683
St-Raphaël-Valescure,St-Raphaël,6.7688996977811655,43.423971731399625
Mandelieu-la-Napoule,Mandelieu-la-Napoule,6.941497655888684,43.52393183445404
Golfe-Juan-Vallauris,Vallauris,7.072888905264846,43.56596165338044
Antibes,Antibes,7.119225384209233,43.585886664132175
Nanterre-Préfecture,Nanterre-Préfecture,2.213829742518429,48.90102234617535
Chatelet-les-Halles,Chatelet-les-Halles,2.3480883105155383,48.85979474591461
St-Joseph-Le Castellas,Marseille-15,5.377418001161576,43.351951514956944
Valence,Valence,4.895563212635127,44.93814822113928
Portes,Portes-lès-Valence,4.874246002845219,44.87953725685093
L'Isle-d'Abeau,St-Alban-de-Roche,5.22039374211716,45.607094679336576
La Côte-St-André-le-Rival,La Côte-St-André,5.266393152481507,45.35145499060232
Peyraud,Peyraud,4.79295454900165,45.294635156182935
Tournon,Tournon-sur-Rhône,4.834504500398046,45.062677726663935
Mauves (Ardèche),Mauves,4.827874963517358,45.0324079209496
Boulieu-lès-Annonay,Estivareilles,,
St-Marcel-lès-Valence,St-Marcel-lès-Valence,4.954203811824478,44.97227677892924
St-Lattier,St-Lattier,5.1938624522725805,45.08641506287179
St-Hilaire-St-Nazaire,St-Hilaire-du-Rosier,5.243897687873892,45.071523792594576
St-Marcellin,St-Marcellin,5.323719250144488,45.15080169096363
Crest,Crest,5.01558883215303,44.7303301777391
Aouste-sur-Sye,Aouste-sur-Sye,5.059349944845612,44.71011111215329
Piegros-La Clastre,Piégros-la-Clastre,5.089224544165675,44.706175263709476
Die,Die,5.362579975522965,44.75837755770769
Belgodere,Occhiatana,9.004495673614286,42.58229436050304
Caldaniccia,Sarrola-Carcopino,8.811407599502788,41.94984752824072
Carbuccia,Carbuccia,8.909494439278513,42.02439447925626
Furiani,Furiani,9.441283658249736,42.64907248645397
Novella,Novella,9.110535938632363,42.580890740026895
Omessa,Omessa,9.188935164222787,42.38027422751132
Ponte-Leccia,Morosaglia,9.20394617699458,42.46937953786214
San-Gavino,Belgodère,9.01910812267725,42.59783376749847
Tennis-Club,Calvi,8.769165431261255,42.55554708287311
Club Med Cocody,Lumio,8.825916577767313,42.597909601549404
Montesoro,Bastia,9.443862489887888,42.66799780712743
Lyon-St-Exupéry-TGV,Colombier-Saugnieu,5.075877861112024,45.72093606755897
La Freissinouse,La Roche-des-Arnauds,5.999876348945517,44.544044867984525
La Bâtie-Neuve-Le Laus,La Bâtie-Neuve,6.193509370720099,44.56501990598734
Chorges,Chorges,6.271773650688589,44.545727228563074
Embrun,Embrun,6.496152519028344,44.56674756948431
Châteauroux (Hautes-Alpes),Châteauroux-les-Alpes,6.530166998303063,44.60963290174149
St-Crépin,St-Crépin,6.603784078906775,44.706607738627255
Serres,Serres,5.718377724798289,44.42414709266119
Châteauneuf-du-Rhône,Châteauneuf-du-Rhône,4.707862708677293,44.483285865114546
La Palud,Lapalud,4.699295789765961,44.30100728890511
Le Pouzin,Le Pouzin,4.750066436271399,44.75186456111632
Meysse,Meysse,4.726712254632517,44.60943603354058
Bourg-St-Andéol,Bourg-St-Andéol,4.642675767410881,44.37426016625388
Vals-les-Bains,Ruoms,,
Sorgues-Châteauneuf-du-Pape,Sorgues,4.875769415484761,44.00532950406153
Le Pontet,Le Pontet,4.858750264612794,43.967683441901904
L'Isle-Fontaine-de-Vaucluse,L'Isle-sur-la-Sorgue,5.047518472991605,43.917169897701385
Cavaillon,Cavaillon,5.044022155749948,43.83458136279736
Cadenet,Cadenet,5.372080227369201,43.72900034676779
Maubec,Maubec,,
Sarrians-Montmirail,Sarrians,4.969521941729648,44.08762733998692
Carpentras,Carpentras,5.043626074852461,44.050358759227
Roquemaure-Tavel,Roquemaure,4.7740161234123635,44.049213726877795
Villeneuve-Pujaut,Villeneuve-lès-Avignon,4.792638116754916,43.96941496726551
Villeneuve-lès-Avignon,Villeneuve-lès-Avignon,4.792094286725816,43.956797162060404
Sète-Bassin-de-Thau (Mèze),Mèze,,
St-Brès-Mudaison,Baillargues,4.027630084347177,43.6607776541736
Les Mazes-le-Crès,Le Crès,3.939434337471156,43.63921666380038
St-Geniès-des-Mourgues,St-Geniès-des-Mourgues,,
Manduel-Redessan,Manduel,4.4793515225987885,43.82634078935127
Aigues-Vives,Aigues-Vives,4.193652120549475,43.72672439839997
Chasseradès,Chasseradès,3.8398176313409085,44.553902953903226
Prévenchères-Gorges-du-Chassezac,Prévenchères,3.912998581635103,44.514995461713255
Génolhac,Génolhac,3.9516535114994302,44.347276873392474
Chamborigaud,Chamborigaud,3.9794298699195183,44.300321677842334
Hinx-sur-Adour,Hinx,-0.9228648796369904,43.700903627359246
Montfort-en-Chalosse,Montfort-en-Chalosse,-0.839850634907965,43.714490027267196
Mauco-Benquet,Haut-Mauco,-0.5352626663254663,43.832672646214625
Hagetmau,Hagetmau,-0.5834873628677665,43.65924203793236
Pau,Pau,-0.3719877238707137,43.29203587894081
Lescar,Lescar,-0.43601711243320296,43.32410519020501
Artix,Labastide-Cézéracq,-0.5698747245362312,43.39281849595891
Sames-Guiche (Pyrénées-Atlantiques),Sames,-1.188288310497138,43.53096066838113
Espès-Undurein,Espès-Undurein,,
La Croix-du-Prince,Jurançon,-0.3789912776548105,43.28580945036735
Gan,Gan,-0.39146276503243,43.234290646158684
Haut-de-Gan,Gan,-0.4287092949225601,43.17723087918024
Arudy,Arudy,-0.4345611956812238,43.103578055393115
Bielle,Bielle,,
Savy-Berlette,Savy-Berlette,2.558040120070211,50.35388372749898
Mazingarbe,Mazingarbe,2.7005057678122157,50.46089616785513
Maroeuil,Maroeuil,2.6982295283486724,50.32245804818262
Roeux,Roeux,2.8946630638690785,50.30353095017339
Hirson-Écoles,Hirson,4.086000106405374,49.92932208305819
Bailleul-Sir-Berthoult,Bailleul-Sir-Berthoult,2.8408393076186123,50.33448426394891
Le Poirier,Trith-St-Léger,3.5029810801499335,50.33156717364174
Violaines,Violaines,2.7808755528475,50.520517334107936
Barlin-Hte,Barlin,2.6290388192975045,50.45071612724831
Valenciennes,Valenciennes,3.5156332729544904,50.362305045520365
Vicoigne,Raismes,3.4760338836799263,50.40048841296804
St-Amand-les-Eaux,St-Amand-les-Eaux,3.4124954310960733,50.445987529495746
Fortel,Fortel-en-Artois,,
St-Laurent-Blangy,Arras,,
St-Venant,St-Venant,,
Rumilly-en-Cambrésis,Rumilly-en-Cambrésis,3.215671912318782,50.13381040746096
Pont-de-Sallaumines,Sallaumines,2.8641770381665013,50.41574309668517
Bouchain,Neuville-sur-Escaut,3.3318976022021265,50.2780369036559
Bauvin-Provin,Bauvin,2.9050407560460103,50.51167305704527
Marcoing,Marcoing,3.182544783290939,50.12093536009193
Somain,Somain,3.2797053264463765,50.35539709287168
Sin-le-Noble,Sin-le-Noble,3.1126100473586527,50.3565404644949
Béziers,Béziers,3.228999303027024,43.33415796799158
Fitou,Fitou,2.999173494817857,42.89659168615178
Nissan,Nissan-lez-Enserune,3.1170323804640483,43.295850103905096
Colombiers,Colombiers,3.14020558253869,43.31887180080624
Bessan,Bessan,3.4220174028712838,43.361188013740254
Paulhan,Paulhan,3.4670777625770133,43.5445275267027
Aspiran,Aspiran,3.465659573450462,43.569214597073774
Clermont-l'Hérault,Clermont-l'Hérault,3.4382103051319044,43.635605032909154
Ceilhes-Roqueredonde,Roqueredonde,3.1551634480766704,43.812139170306786
Bédarieux,Bédarieux,3.149678977670749,43.608613867784484
Faugères,Faugères,,
Caux,Caux,,
Garabit,Loubaresse,3.1791879293549963,44.970961465985205
Le Monastier,Le Monastier-Pin-Moriès,3.2522221240054483,44.508906694637616
St-Laurent-d'Olt,St-Laurent-d'Olt,3.118563212010273,44.43736337676836
Laissac,Laissac,2.8223118638801497,44.3750538540899
Perpignan,Perpignan,2.8805755026028765,42.69355690595785
Elne,Elne,2.9634830505861127,42.59719348914475
Argelès-sur-Mer,Argelès-sur-Mer,3.0216389611035823,42.54403628665191
Collioure,Collioure,3.0782027927295137,42.52676701474552
St-Jean-Pla-de-Corts,St-Jean-Pla-de-Corts,2.7891885853701357,42.516049064388156
Caudiès,Caudiès-de-Fenouillèdes,2.3730803462138508,42.810639950853094
Cases-de-Pène,Espira-de-l'Agly,2.793116620024166,42.77898338998102
Nefiach,Néfiach,2.6643822426770942,42.683202150618364
Bouleternère,Bouleternère,2.5884828289026087,42.654196159635966
Domanova-Rodes,Rodès,2.559499589237769,42.649241010033826
Vinça,Vinça,2.5269390179596183,42.647735316751564
Villefranche-Vernet-les-Bains,Fuilla,2.3700302716715926,42.5914581884127
Joncet,Serdinya,2.311245947030553,42.561539114650905
Sauto,Sauto,2.159738420428227,42.50617882069271
Mont-Louis-La Cabanasse,La Cabanasse,2.1132280396853567,42.50196419459359
Bolquère-Eyne,Bolquère,2.0848848911335347,42.498295605143774
Font-Romeu-Odeillo-Via,Font-Romeu-Odeillo-Via,2.038504116632242,42.49121703762055
L'Île-Rousse,L'Île-Rousse,8.935600686886335,42.63700298745189
Avignon-Terminal TER,Avignon,4.786363657109745,43.9219602083956
La Varenne-Chennevières,St-Maur-des-Fossés,2.51300020389014,48.794519372317346
La Houssaye-Crèvecoeur,La Houssaye-en-Brie,2.883501428249355,48.75447257630393
Vincennes-Fontenay,Fontenay-sous-Bois,2.461980781269204,48.84422392531108
Villiers-St-Georges,Villiers-St-Georges,3.412834906996417,48.650190095302676
Ste-Colombe-Septveilles,Ste-Colombe,3.2557077343792264,48.52933650008643
Boissy-St-Léger,Boissy-St-Léger,2.504964673711875,48.753223503303936
Sucy-Bonneuil,Sucy-en-Brie,2.507696420806658,48.771614532200644
Faremoutiers-Pommeuse,Pommeuse,2.9932564508303727,48.80860544657548
Flamboin-Gouaix,Gouaix,3.294622544906358,48.47250628029988
Esbly,Esbly,2.810621935936421,48.90314285769407
La Ferté-Gaucher,La Ferté-Gaucher,3.297663724617712,48.78223351896509
Nanteuil-Saâcy,Saâcy-sur-Marne,3.2202170216805954,48.9739617204389
Neuilly-St-Front,Vichel-Nanteuil,3.2706867446796863,49.18722373236147
Meilleray,Villeneuve-la-Lionne,3.417369191033536,48.78353993164037
Vimpelles,Luisetaines,3.184860295801073,48.44626835361118
Metz-n° 2,Montigny-lès-Metz,6.142433862865842,49.095007779574026
Brie-Comte-Robert,Brie-Comte-Robert,,
Chaumes,Fontenay-Trésigny,,
Maizières-la-Grande-Paroisse,Maizières-la-Grande-Paroisse,3.7860031704601873,48.50502422819825
Vendeuvre (Aube),Vendeuvre-sur-Barse,4.467286268300827,48.24028070405436
Nogent-sur-Seine,Nogent-sur-Seine,3.4938339074654903,48.49794760260068
Bar-sur-Aube,Bar-sur-Aube,4.706902327661998,48.23863618688179
St-Mesmin,St-Mesmin,3.9255198606448576,48.43866656879721
Jessains,Jessains,4.583128840722745,48.28464447483231
Payns,Payns,3.9742076975112894,48.38067595323349
Bayel,Bayel,4.784705605083341,48.19760849920959
Rouilly-Geraudot,Rouilly-Sacey,4.2851010002970735,48.32778133420857
Clairvaux,Longchamp-sur-Aujon,4.801950782299138,48.15834348710044
Chamoy-St-Phal,St-Phal,3.9850880355308433,48.11547999302735
Bréviandes,Bréviandes,4.097621282394186,48.25329101317057
Montsuzain,Montsuzain,4.12853401156133,48.44117964345975
Auxon,Auxon,3.925862966353405,48.09202558947224
La Ferté-sur-Chiers,La Ferté-sur-Chiers,5.2446357431947925,49.57352786200465
Autrecourt-Villers,Autrecourt-et-Pourron,5.030459560546835,49.619165355771706
Montigny-sur-Meuse,Montigny-sur-Meuse,4.7209435891942855,50.04839445586853
Valence-TGV,Alixan,4.978736879911613,44.991448081268494
Aspres-sur-Buëch,Aspres-sur-Buëch,5.754737683141178,44.518883252819656
Veynes-Dévoluy,Veynes,5.8159412342501815,44.531879263730296
Briançon,Briançon,6.632590100904112,44.889612777236565
Montrond,Montrond,5.7435529503758165,44.38739922836313
Mondragon,Mondragon,4.711668079238106,44.239603885301186
Cruas,Cruas,4.765580021583681,44.65590046584959
Pont-St-Esprit,Pont-St-Esprit,4.643193362160599,44.25347736889764
Bagnols,Bagnols-sur-Cèze,4.6270604433977685,44.16156891998202
Chomérac,Chomérac,4.665855189384977,44.694900483307705
Aubenas,Pradons,,
Lalevade-d'Ardèche-Prades,Grospierres,,
Uzer-Joyeuse,Uzer,,
Avignon-Centre,Avignon-Centre,4.812251508493534,43.941836047536434
Orange,Orange,4.8196623788204365,44.1374468337854
Valréas,Valréas,,
Nyons,Nyons,,
Courthézon,Courthézon,4.888305271096914,44.08991024825616
Tarascon,Tarascon,4.65779203971903,43.801275854283546
Morières-lès-Avignon,Morières-lès-Avignon,4.908363202175189,43.941449668136556
Cheval-Blanc Base-Travaux-LGV,Cheval-Blanc,5.064557606409967,43.79299019455054
Villelaure,Villelaure,5.428968617161331,43.707182786757535
Goult-Lumières,Goult,,
Saignon,Saignon,,
Jonquières,Jonquières,4.899373855517863,44.11783861051671
Monteux,Monteux,4.994882112024842,44.03746169452721
Entraigues-sur-la-Sorgue,Entraigues-sur-la-Sorgue,4.922475787253516,44.00538700159353
Aramon,Aramon,4.686394357406919,43.89527633278245
Marolles-TGV,Marolles-sur-Seine,3.054075205044267,48.37259320635681
Tonnerre-TGV,Tonnerre,3.917524446096516,47.8516329442215
Lacour d'Arcenay,Lacour-d'Arcenay,4.249343920011483,47.34299629584359
Vic-Mireval,Vic-la-Gardiole,3.799519790518108,43.500776527296345
Frontignan,Frontignan,3.75895970261544,43.44488338982112
Fabrègues,Fabrègues,3.776036876110828,43.557169876037825
St-Jean-de-Védas,St-Jean-de-Védas,3.826709933720291,43.571930196634796
St-Christol,St-Christol,,
Nîmes,Nîmes,4.366218272451483,43.83252873429654
St-Césaire,St-Césaire,,
Milhaud,Milhaud,4.303360621176713,43.78862001622728
La Bastide-St-Laurent-les-Bains,La Bastide-Puylaurent,3.9039466275257317,44.59338575598067
Concoules-Ponteils,Ponteils-et-Brésis,3.9389090619525606,44.39251702292068
Alès,Alès,4.0849673961087145,44.128031627473405
Mas-des-Gardies,Vézénobres,,
Nozières-Brignon,Brignon,,
Ribaute-lès-Tavernes,Ribaute-les-Tavernes,,
Canaules-St-Nazaire,St-Nazaire-des-Gardies,,
Robiac,Robiac-Rochessadoule,,
Molières-sur-Cèze,Molières-sur-Cèze,4.1599898246494185,44.25943582388696
St-Ambroix,St-Ambroix,4.194067757121593,44.25966871178584
St-Julien-les-Fumades,St-Julien-de-Cassagnas,4.192040497561506,44.21132694199246
Sernhac,Sernhac,4.559109048802698,43.91150716117332
Meynes-Montfrin,Montfrin,4.576283142342752,43.87237723499197
Sumène,Sumène,,
Ganges,Ganges,,
Quissac,Quissac,,
Sommières,Sommières,,
Générac,Générac,4.3434184176503265,43.732395019992246
Beauvoisin,Beauvoisin,4.321314654976703,43.724508776141064
Le Cailar,Le Cailar,4.234917595726394,43.68327665310768
La Furane,Capendu,2.5651090957901546,43.181833194402245
Junas,Junas,,
Nages,Nages-et-Solorgues,,
Cardet,Cardet,,
La Cadière,La Cadière-et-Cambo,,
Coursan,Coursan,3.0512802959041077,43.23406184095437
Vias,Vias,3.4255347555329068,43.316072850226014
Agde,Agde,3.4667313688005525,43.317493383126994
St-Thibéry,St-Thibéry,3.4112773781492964,43.40083118756298
Montpaon,Fondamente,3.1096949182999087,43.86844464201041
Lunas,Lunas,3.1948905134212766,43.709542203879316
Le Bousquet-d'Orb,Le Bousquet-d'Orb,3.1689273921376384,43.691098536008155
Lamalou-les-Bains,Lamalou-les-Bains,3.080479316549922,43.587798707163884
Roujan,Roujan,,
Nizas,Nizas,,
Andelat,Andelat,3.064172561279489,45.0511198296756
Arcomie,Les Monts-Verts,3.250895063323122,44.865779622910615
Auxillac,La Canourgue,3.209940302898437,44.47531445315653
Campagnac-St-Geniez,Campagnac,3.0662303082339664,44.422000091177814
Sévérac-le-Château,Sévérac-le-Château,3.0564738412366768,44.32599083217543
Tournemire-Roquefort,Tournemire,3.0165913632374823,43.96998189614436
St-Affrique,St-Affrique,2.893889339935025,43.95076300290724
Balsièges,Balsièges,3.4626991134616434,44.48756726172193
Badaroux,Badaroux,3.5447460029644224,44.532553256352934
Bagnols-Chadenet,Chadenet,3.628354122404666,44.52861389556279
Allenc,Allenc,3.664130358302335,44.541521031161814
Larzalier,Allenc,3.6946596285122233,44.564269013808506
Bozouls,Bozouls,,
Port-Vendres-Ville,Port-Vendres-Ville,3.1079584980886747,42.513367769645335
Axat (Aude),Axat,2.227258519660143,42.80293646465584
Estagel,Estagel,2.6984950333768536,42.77686233827329
Espira-de-l'Agly,Espira-de-l'Agly,2.8333514947969927,42.77229463217546
Serdinya,Serdinya,2.3232219954155737,42.56698185636394
Nyers,Souanyas,2.263025997094444,42.54164503823846
Planès,Planès,2.1368877803522515,42.50103720180767
Les Salines,Ajaccio,8.750524710705442,41.93373951412479
Rivoli,Bastia,9.445422622563152,42.68018122283959
Fornacina,Furiani,9.4400182695819,42.639141809350356
La Beaume,La Beaume,5.633960456893434,44.552336258433456
St-Pierre-d'Argençon,St-Pierre-d'Argençon,5.698723540596558,44.52153822994904
La Roche-de-Rame,La Roche-de-Rame,6.583103516142857,44.73768938598237
Eyguians-Orpierre,Eyguians,5.773781001146363,44.346061508573705
Bollène-la-Croisière,Bollène,4.7081481847934565,44.271542331649364
Rochemaure,Rochemaure,4.709120305492597,44.58960884647568
Le Teil,Le Teil,4.686544297614275,44.552629711611935
Venejan,Vénéjan,4.64629994841754,44.19975803107932
Privas,Privas,4.592867969662146,44.730545463109905
St-Jean-le-Centenier,St-Jean-le-Centenier,4.53737937924712,44.58908903257544
St-Sernin,Balazuc,,
Ruoms-Vallon,Ruoms,,
Avignon-Centre,Avignon,4.8052186398194365,43.941170710449036
Piolenc,Piolenc,4.787210152291818,44.173198366724264
Graveson-Maillane,Graveson,4.749000460821947,43.84620742131113
Gadagne,Châteauneuf-de-Gadagne,4.956947773630085,43.929739832964074
Mérindol,Mérindol,5.181350553287917,43.74576329559808
Apt,Apt,,
Aubignan-Loriol,Loriol-du-Comtat,5.019730381705356,44.085741340781
Sauveterre,Sauveterre,4.801979977047275,44.02415486023034
Vaumort,Vaumort,3.4495449299785665,48.11599305032837
Montpellier-St-Roch,Montpellier-St-Roch,3.87720379594503,43.59916750167159
Bouzigues,Bouzigues,,
Loupian,Loupian,,
Baillargues,Baillargues,4.006768360783083,43.65313882274185
St-Aunès,St-Aunès,3.963258236281296,43.63539371862417
Montbazin-Gigean,Montbazin,3.7072736404623305,43.51224096295382
Castriès (Hérault),Castries,,
Beaucaire,Beaucaire,4.647372766110843,43.802158264377375
Beaucaire-Marchandises,Beaucaire,4.623845865005631,43.80768655242276
Jonquières-St-Vincent,Manduel,4.532668545532623,43.79688386825497
Manduel-Redessan-Marchandises,Manduel,4.489768993121912,43.82329586239625
Uchaud,Uchaud,4.267364832101653,43.75797924386263
Vergèze-Codognan,Vergèze,4.219113329716423,43.739779462874615
Villefort,Villefort,3.924035262276116,44.43946205033167
La Levade,La Grand-Combe,4.010335710716527,44.22854435129834
Grand'Combe-La Pise,La Grand-Combe,4.0325884897023485,44.2097170527969
St-Hilaire-de-Brethmas,St-Hilaire-de-Brethmas,4.11103325050412,44.084827137454255
Boucoiran,Boucoiran-et-Nozières,4.18754351808406,43.99273014025836
Nozières-Brignon,Boucoiran-et-Nozières,4.207422079941034,43.9758698457229
Remoulins-Pont-du-Gard,Remoulins,4.568512128266995,43.93793239441576
Lézan,Lézan,,
Salindres,Salindres,4.153212090320837,44.173128489576094
St-Florent-sur-Auzonnet,St-Florent-sur-Auzonnet,4.132423260038586,44.23433435963207
St-Jean-de-Valériscle,St-Jean-de-Valériscle,4.158106114060511,44.227349357871724
Uzès,Uzès,,
Pont-d'Hérault,Sumène,,
Calvisson,Calvisson,,
Langlade,Langlade,,
St-Laurent-d'Aigouze,St-Laurent-d'Aigouze,4.193010328022384,43.63914459623065
Fontanès,Fontanès,,
Boisseron,Boisseron,,
Junas,Aubais,,
Marcorignan,Narbonne,2.9269675515523788,43.21351374854456
Puisserguier,Puisserguier,,
Florensac,St-Thibéry,3.434521429992825,43.38870335986376
Rabieux (PK),Ceyras,3.4378709921308817,43.6672274251646
Canet,Nébian,3.464324214338635,43.59509796432194
Les Cabrils,Roqueredonde,3.18619244268379,43.77956015882409
Laurens,Laurens,3.207855280058824,43.52030332300844
Espondeilhan,Espondeilhan,3.2515887543242465,43.44240756841844
St-Pons (Hérault),St-Pons-de-Thomières,2.783155106065632,43.48984088493353
Gabian,Gabian,,
Mirepeisset-Argeliers,Sallèles-d'Aude,2.905710488161553,43.28937574716782
Graissessac-Estréchoux,Graissessac,,
Talizat,Talizat,3.0273395327692856,45.11081693097948
St-Flour-Chaudes-Aigues,St-Flour,3.1061434781414623,45.03497152028242
St-Chély-d'Apcher,St-Chély-d'Apcher,3.2707978006652723,44.801694525652024
Les Salelles,Les Salelles,3.279742536294395,44.483145218025825
Chanac,Esclanèdes,3.345563721851413,44.4740883799819
Gaillac-d'Aveyron,Gaillac-d'Aveyron,2.930224667050285,44.35606881089698
Recoules,Recoules-Prévinquières,2.9745348893134134,44.34852841973571
Salses,Salses-le-Château,2.917412907106511,42.83556456554592
Port-Vendres-Ville,Port-Vendres,3.102682609531888,42.51337430079546
Céret,Céret,2.7279687553839027,42.49489642766867
Lapradelle,Puilaurens,2.313008818752499,42.81070782254279
St-Féliu-d'Avall,St-Féliu-d'Avall,2.7378907320805768,42.67731335432461
Thuès,Thuès-entre-Valls,2.2227780802026325,42.522906676549844
Ajaccio,Ajaccio,8.739116863137513,41.92763312716372
Bastia,Bastia,9.446076995818697,42.699275022388704
Calvi,Calvi,8.755757613601096,42.564375654743664
Remise-à-Jorelle,Bondy,2.485832518295548,48.8928680453126
Lycée-Henri-Sellier,Livry-Gargan,2.515624361772269,48.914541842713525
Centre Henri Lang,Paris-12,2.3775633178519584,48.84330058362543
Bertrix,Bertrix,,
La Rivière-Thibouville,Fontaine-la-Soret,0.7224231302340101,49.14666625176003
Condé-sur-Risle,Condé-sur-Risle,0.6161994590783073,49.31465804941243
Beuzeville (Eure),Beuzeville,0.35176774848308784,49.340842485653035
Port-Villez,Port-Villez,1.524419371622357,49.06117872958442
Le Vaudreuil-St-Étienne,St-Étienne-du-Vauvray,1.212213081857647,49.24848343870247
Louviers,Louviers,1.1772128836399929,49.21936539312094
Reims-Franchet-d'Esperey,Reims,4.014088047164476,49.24212991365866
Lancey,Villard-Bonnot,5.880868045948992,45.23453734722773
Acquigny,Acquigny,,
Carpiquet,Carpiquet,-0.4480642629114143,49.19102814686557
Aunay-St-Georges,St-Georges-d'Aunay,,
Thury-Harcourt,La Neuville-du-Bosc,,
Mézidon,Mézidon-Canon,,
Couliboeuf,Morteaux-Couliboeuf,-0.09829564495577038,48.92358252889923
Falaise,Falaise,,
Falaise,Eraines,,
Courtonne-la-Meurdrac,Courtonne-la-Meurdrac,0.3345636209397729,49.12045289440914
Pont-l'Évêque,Pont-l'Évêque,0.1922135940657724,49.287087514132644
Trouville-Deauville,Trouville-Deauville,0.08456404982490917,49.35975414891228
Villers-sur-Mer,Villers-sur-Mer,0.01005359715555565,49.315874400700224
La Rivière-St-Sauveur,La Rivière-St-Sauveur,0.2739457641539689,49.405814008724306
Broglie,Broglie,,
Montabard,Montabard,-0.09620672024750156,48.81617987941231
Surdon,Le Château-d'Almenêches,0.13455840966972962,48.665029027817496
Le Merlerault,Le Merlerault,0.28331423829434216,48.7025201714651
Rai-Aube,Aube,0.5537225428689114,48.74376298436858
L'Aigle,L'Aigle,,
St-Martin-d'Écublei,St-Martin-d'Écublei,,
Crulai,Crulai,,
Randonnai-Irai,Irai,,
Vingt-Hanaps,Vingt-Hanaps,0.14488748274187316,48.52105056563535
Couterne,Couterne,,
Juvigny-sous-Andaine,Juvigny-sous-Andaine,,
Mortagne-au-Perche,St-Langis-lès-Mortagne,0.5489806881944688,48.5098067144217
Vignats,Vignats,-0.10683543630808467,48.846524967155645
Cherbourg,Cherbourg-Octeville,-1.620837020380606,49.63310830892097
Martinvast,Martinvast,-1.6649387530915605,49.59503361954365
St-Cyprien-Arènes,Toulouse,1.4164796882110935,43.59392640556604
Belval,Belval,-1.3502044037726173,49.0733982580443
Canisy,St-Gilles,-1.1750683568853408,49.08213345835959
Lison,Lison,-1.0534386972232002,49.226912468791475
Isigny-sur-Mer,Isigny-sur-Mer,,
Chef-du-Pont-Ste-Mère,Chef-du-Pont,-1.3442713511001971,49.3845366358491
Fresville,Fresville,-1.3809056949688092,49.43493294310286
St-Sauveur-le-Vicomte,St-Sauveur-le-Vicomte,,
St-Sauveur-de-Pierrepont,St-Nicolas-de-Pierrepont,,
La Haye-du-Puits,St-Symphorien-le-Valois,,
Angoville-sur-Ay,Mobecq,,
Lessay,Lessay,,
Orval-Hyenville,Orval,-1.4614710513677571,48.99399821266422
Quettreville-sur-Sienne,Quettreville-sur-Sienne,-1.4543722146631357,48.969043697261284
St-Sever,St-Sever-Calvados,-1.051643849945736,48.84362836466453
Briouze,Briouze,-0.3674599148397629,48.7020274482753
Mortain-Bion,Bion,,
St-Germain-de-Tallevende,St-Germain-de-Tallevende-la-Lande-Vaumont,-0.909551844158206,48.797029412462436
Les Maures,Chaulieu,-0.8750289805293668,48.74999077107608
Bagnoles-de-l'Orne-Tessé-la-Madeleine,Bagnoles-de-l'Orne,-0.4138781831308868,48.55864941697636
Pontaubault,Le Val-St-Père,-1.353243514718638,48.63909102669031
St-Hilaire-du-Harcouët,Parigny,,
Ducey,Ducey,,
Bruz,Bruz,-1.751863126756572,48.02873873088183
St-Jacques-de-la-Lande,St-Jacques-de-la-Lande,-1.7137448674474416,48.067572719890535
Laillé,Guichen,-1.74943485888762,47.97104695918046
St-Senoux-Pléchâtel,St-Senoux,-1.7661353305032643,47.89787749005208
Le Theil-de-Bretagne,Le Theil-de-Bretagne,-1.4321549870817585,47.918727842581596
Pontchaillou,Rennes,-1.6918010732042623,48.118263556361434
Pipriac-Lohéac-Lieuron,Lieuron,,
Les Lacs,St-Aubin-des-Landes,-1.3223472926555535,48.109081657042296
Servon,Servon-sur-Vilaine,-1.463135340881243,48.11223075302593
La Selle-en-Luitré,Luitré,-1.15143823788637,48.312301465795144
La Guerche-de-Bretagne,La Guerche-de-Bretagne,,
St-Lubin-le-Vaublanc,Plémet,,
St-Brieuc,St-Brieuc,-2.7649627514963817,48.507190983357155
Plénée-Jugon,Plénée-Jugon,-2.354648763203393,48.37664297834419
Lamballe,Lamballe,-2.5058466714608114,48.46607846756016
Yffiniac,Yffiniac,-2.6522125948567945,48.47019943491513
Guingamp,Guingamp,-3.1570936682142716,48.552990438861436
Quintin,St-Brandan,-2.8917008443682963,48.39735236712676
Le Pas,St-Brandan,-2.877413337136641,48.366388581663635
Ploeuc-L'Hermitage,L'Hermitage-Lorge,-2.828542180870071,48.33027764899066
Hémonstoir-St-Gonnery,Hémonstoir,-2.825064118460624,48.1470684445839
Gourin,Gourin,,
Moustéru,Bourbriac,-3.242782593047977,48.50779865852206
Gouarec,Laniscat,,
Quéménéven,Quéménéven,-4.085804996612713,48.11563521669611
Douarnenez-Tréboul,Douarnenez,,
Le Juch,Le Juch,,
Concarneau,Concarneau,-3.920653487296092,47.87775382153119
Guiscriff,Guiscriff,,
Auray,Auray,-2.999595482526673,47.68024561368402
St-Rivalain,St-Barthélemy,-3.0657520618040444,47.946834304216615
Pontivy,Pontivy,-2.965775460249527,48.061560197765296
Vannes,Vannes,-2.7524038812162512,47.66520979265519
Ste-Anne,Pluneret,-2.9605809733035744,47.67850522991184
St-Gildas-des-Bois,St-Gildas-des-Bois,-2.044122473099628,47.51643540736758
Bonnemain,Bonnemain,-1.7650851434863233,48.47629730968968
St-Christau-Lurbe,Lurbe-St-Christau,-0.6056142320669403,43.12021264473371
Lescun-Cette-Eygun,Cette-Eygun,-0.6025602918286039,42.94020779156913
Bayonne-Allées-Marines,Bayonne,-1.4837730762518793,43.497483074379026
Marracq,Bayonne,-1.4912155320923808,43.4935452685691
Dax,Dax,-1.0664879514100605,43.70992681254756
Labenne,Labenne,-1.4287867645627326,43.587071200442956
Cambo-les-Bains,Cambo-les-Bains,-1.3966824192311882,43.36555793170391
Lahonce,Lahonce,-1.3867103429880578,43.49099168946438
Certilleux,Certilleux,5.719449123262264,48.31271488593386
Cheppes-la-Prairie,Cheppes-la-Prairie,4.47937621939557,48.82843693233772
Monswiller,Fère-Champenoise,3.991461119852264,48.76468009949106
Ferrières,Ferrières,,
Balaruc,Balaruc-les-Bains,3.6937360475472247,43.447521188458964
St-Jean-de-Luz-Ciboure,St-Jean-de-Luz,-1.6611208755768612,43.385630538051984
Corbeil-Essonnes,Corbeil-Essonnes,2.473782410863145,48.61407088260272
Le Vert-de-Maisons,Maisons-Alfort,2.432377715308212,48.788115289923496
Moulin-Galant,Corbeil-Essonnes,2.473539962733294,48.58616345487803
Le Plessis-Chenet,Le Coudray-Montceaux,2.4795753872061246,48.57378621992528
St-Mammès,St-Mammès,2.8145553633968765,48.38159397621057
Montereau,Montereau-Fault-Yonne,2.941286736785207,48.37977615028311
Montereau,Montereau,2.9348900079755933,48.38007498211493
La Grande-Paroisse,La Grande-Paroisse,2.8972268100989527,48.37876500728777
Boissise-le-Roi,Boissise-le-Roi,2.5734498628283173,48.52916539413904
Villeneuve-la-Guyard,Villeneuve-la-Guyard,3.0704528728542555,48.34298861849005
St-Julien-du-Sault,St-Julien-du-Sault,3.3036705710030128,48.02784855144447
Laroche-Migennes,Migennes,3.5129403208037218,47.96084027269988
St-Florentin-Vergigny,Vergigny,3.7299292520261775,47.98020249062703
St-Florentin-Ville,St-Florentin,3.7402697148047994,48.00426051405738
Pontigny,Pontigny,3.7171657665616156,47.91541562994092
Gurgy (Bourg),Gurgy,3.574300411761965,47.86650649523093
Voutenay,Voutenay-sur-Cure,3.780381676482132,47.56128552918838
Vault-de-Lugny,Vault-de-Lugny,3.8411420179747657,47.515331076395185
Montargis,Montargis,,
Bourron-Marlotte-Grez,Bourron-Marlotte,2.6926141903019416,48.33271478621082
Nemours-St-Pierre,St-Pierre-lès-Nemours,2.6855897780509967,48.267828308615826
Bagneaux-sur-Loing,Bagneaux-sur-Loing,2.703400730744868,48.23049418737917
Boigneville,Boigneville,2.3790389973679904,48.34215966984908
Malesherbes,Malesherbes,2.40099439248392,48.29341001336289
Pannes,Pannes,2.6721495283637067,48.01557411001985
St-Maurice-sur-Fessard,St-Maurice-sur-Fessard,2.635983675082369,47.997116381414216
Triguères,Triguères,2.979292815007417,47.93983663182916
Douchy,Douchy,3.056297685362925,47.941044826551845
Toucy-Ville,Toucy,3.2580380929393864,47.75167909498192
Fontenoy,Fontenoy,3.309302547050795,47.6948336569067
Paris-Gare-de-Lyon,Paris-12,2.3756452859048736,48.84431152436104
Paris-Gare-de-Lyon (Banlieue),Paris-12,2.3739980018165663,48.844142174377076
Paris-Bercy,Paris-12,2.385020824629119,48.840056742386324
Pousseaux,Pousseaux,3.5247091568801463,47.51619462966053
Sardy-lès-Épiry,Sardy-lès-Épiry,3.70238385444256,47.195048310270884
Verneuil (Nièvre),Verneuil,3.583479625543812,46.845837720936004
Étang,Étang,4.1886495041818455,46.8674674647196
Les Jeannins,Le Creusot,4.413370315229863,46.81834459527807
Montchanin,Montchanin,4.473041415305401,46.76214100547226
Monetois,Écuisses,4.511020155267665,46.762119858866605
St-Bérain,St-Bérain-sur-Dheune,4.594631828163772,46.824147234678314
St-Léger-sur-Dheune,St-Léger-sur-Dheune,4.628441766449198,46.848425175627916
Dennevy,Dennevy,4.643288104835507,46.866674995686964
St-Gilles (Saône-et-Loire),St-Gilles,4.659841960374347,46.880483192123954
St-Didier (Côte-d'Or),St-Didier,4.197225144426968,47.31656261162132
Liernais,Liernais,4.267200397415395,47.21367109900378
Manlay,Manlay,4.3265705088899535,47.13253450301303
Dracy-St-Loup,Dracy-St-Loup,4.340693731576091,47.007066200441855
L'Orme-St-Pantaléon,Autun,4.312443304647395,46.98411884503963
Ciry-le-Noble,Ciry-le-Noble,4.299610871448938,46.60406397656996
St-Julien-Changy,St-Julien-de-Civry,4.2521063678855695,46.387184734497566
Dyo,Dyo,4.289364053851899,46.35848050259172
Marcigny,Marcigny,4.035204440541027,46.27599772457378
Charolles,Charolles,,
Nevers,Nevers,3.1505156936529524,46.987320179083795
St-Satur (Cher),St-Satur,,
Bonny,Bonny-sur-Loire,2.8441122355117003,47.55920074471449
Pougues-les-Eaux,Pougues-les-Eaux,3.0939351986179413,47.0767838687115
Fourchambault,Fourchambault,3.0873542907277867,47.01894369811664
Villeneuve-sur-Allier,Villeneuve-sur-Allier,3.2468652736218235,46.65911911232657
Moulins-sur-Allier,Moulins-sur-Allier,3.33831749651396,46.5587421520745
La Ferté-Hauterive,La Ferté-Hauterive,3.3545482407023925,46.38891155403545
Créchy,Créchy,3.429922762181872,46.26519294629478
St-Pourçain-sur-Sioule,St-Pourçain-sur-Sioule,3.2990857409823584,46.305035204848245
Decize,Decize,3.4674985438989685,46.83744313029899
Rémilly-St-Honoré-les-Bains,Rémilly,3.8151968355559434,46.83487481273703
Aunay,Aunay-en-Bazois,3.729491130726588,47.11107138957467
Dirol,Dirol,3.6536341629439564,47.32459535360711
Flez-Cuzy-Tannay,Tannay,3.615134800485459,47.363016895951745
Urzy,Urzy,3.1950245616811075,47.05461124209454
Guérigny,Guérigny,3.1969379866651533,47.09173920690405
Varzy,Varzy,3.3847912417721635,47.35296685940934
Corvol-l'Orgueilleux,Corvol-l'Orgueilleux,3.414905967308392,47.43373351625485
Clamecy,Clamecy,3.52059693667432,47.466740174528674
Châtel-Censoir,Châtel-Censoir,3.635139936305949,47.53777617709835
Pierrefite-Stains TT,Pierrefitte-sur-Seine,2.367366380253276,48.96007131342436
Serrigny,Ladoix-Serrigny,4.885613495347405,47.05785641487921
Gissey-sur-Ouche,Gissey-sur-Ouche,,
Champdôtre-Pont,Pont,5.295607217366596,47.162191277781496
Velars,Velars-sur-Ouche,4.927962165682994,47.326997426515476
Grand-Contour,Falletans,5.587274321151964,47.06179065134013
Mont-sous-Vaudrey,Mont-sous-Vaudrey,5.596842612327502,46.98416411844894
Franxault,Franxault,5.281346106227321,47.061225608430824
Les Jousserots,Longwy-sur-le-Doubs,,
Monthois,Monthois,4.712480189517033,49.32483650004077
Châlons-en-Champagne,Châlons-en-Champagne,4.34747897665658,48.95682346508974
Ardeuil-Marvaux,Marvaux-Vieux,,
Apremont-sur-Aire,Apremont,,
Haraucourt,Haraucourt,,
Rimogne,Harcy,,
Dommartin-le-Franc,Dommartin-le-Franc,4.954458259000705,48.42898258606847
St-Louis-la-Chaussée,St-Louis,7.531044331517943,47.609531960908214
Rambucourt-Bouconville,Rambucourt,5.741443923744577,48.8432900562707
Louvemont,Louvemont,4.9199541651204814,48.54891863787679
Valdieu,Valdieu-Lutran,7.0563756119311565,47.63120825424095
Brunstatt,Brunstatt,7.314450618663786,47.719960132217224
Les Islettes,Les Islettes,5.001659197399296,49.10605453999297
Evergnicourt,Évergnicourt,4.037499181243031,49.439590593503475
Chalampé,Chalampé,7.53838528070854,47.81555467340535
Luttenbach-près-Munster,Luttenbach-près-Munster,7.118844201837517,48.03530647173008
Petit-Croix,Montreux-Château,6.994264740167023,47.60999195697978
Bas-Évette,Évette-Salbert,6.805673746724615,47.6813982577286
Soultz (Haut-Rhin),Soultz-Haut-Rhin,7.232374786697112,47.88933910111745
Île-Napoléon,Illzach,7.390780767133801,47.7676904547052
Bantzenheim,Bantzenheim,7.505385239937565,47.811588974683396
Thann-St-Jacques,Thann,7.093342642302612,47.813247465399044
Huningue (IE),Huningue,7.584489399060187,47.601527104257286
Oderen,Oderen,6.973583940197528,47.91183401357485
St-Erme,St-Erme-Outre-et-Ramecourt,3.8576210423604,49.526755562354644
Damery-Boursault,Vauciennes,3.8753225705837435,49.06208113408458
Champagne-Ardenne-TGV,Bezannes,3.9936559956053936,49.214559242015525
Mairy-sur-Marne,Mairy-sur-Marne,4.421517319644535,48.877674255027635
Guignicourt,Guignicourt,3.9613357315910362,49.43440304172821
Amifontaine,Amifontaine,3.9106821693278633,49.48469662676303
Courcy-Brimont,Courcy,4.014231404138552,49.32935496255477
Germaine,Germaine,4.022858782942288,49.12805579944982
Braine,Braine,3.539797001630332,49.333056286471866
Loivre,Loivre,3.990653406713556,49.34590273568811
Savigny (Ardennes),Savigny-sur-Aisne,4.708406020055213,49.37067184618173
Nouvion-sur-Meuse,Nouvion-sur-Meuse,4.79501899951438,49.697103593677674
Lafrancheville,La Francheville,4.714593923044848,49.72837357225829
Launois,Launois-sur-Vence,4.536884765936441,49.64695629618579
Bazeilles,Bazeilles,4.986271337925847,49.6719657259352
Donchery,Donchery,4.8748297471774364,49.6983163493635
Margut-Fromy,Fromy,5.2573328398145165,49.59070957115903
Deville,Deville,4.707017563077379,49.8802009754296
Lumes,Lumes,4.783240563825569,49.73298159988859
Voncq,Voncq,4.65789722278895,49.46052844285983
Sermaize-les-Bains,Sermaize-les-Bains,4.906917138620981,48.786732551364544
Blesme-Haussignemont,Haussignémont,4.752968538511998,48.721606595569284
Loisy-sur-Marne,Loisy-sur-Marne,4.540436905103516,48.759135190703276
Athis-Tours-sur-Marne,Athis,4.126931779449473,49.01992823570404
Pringy,Pringy,4.522324795105669,48.78172870950157
Songy,Songy,4.50546625417045,48.80250788003932
Montier-en-Der,Montier-en-Der,4.768154496884066,48.473886988797034
Gigny-Brandonvillers,Gigny-Bussy,4.584157997415248,48.59680047270978
Ste-Menehould,Ste-Menehould,4.903642058182993,49.08989207782084
Revigny,Revigny-sur-Ornain,4.985835511229858,48.824026513186425
St-Dizier,St-Dizier,4.951079373888255,48.64175375110671
Ligny,Ligny-en-barrois,5.3206827985075185,48.68608586221864
Bar-le-Duc,Bar-le-Duc,5.167193337889746,48.77367615307599
Curel,Curel,5.130956689324207,48.489588602790356
Valmy,Valmy,4.788962277267343,49.08023051698906
Oberhergheim,Oberhergheim,7.388986595783124,47.96670212872492
Mulhouse-Dornach,Mulhouse,7.308132635705053,47.74689819865143
Ostheim-Beblenheim,Ostheim,7.360269530442423,48.159398683029174
Oberentzen,Oberentzen,7.37579492533823,47.94560345430561
Aspach,Aspach-le-Bas,7.143008723215128,47.77027900221507
Guewenheim,Guewenheim,7.091757854317059,47.74864288466346
Illfurth,Illfurth,7.268523037278571,47.67627168553786
Cernay,Cernay,7.173924801562017,47.80173615813757
Port-d'Atelier-Amance,Faverney,6.040062868730098,47.762535975187454
Morvillars,Morvillars,6.9354770425391665,47.54965868649208
Pompierre,Pompierre-sur-Doubs,6.52118885289288,47.416741531398976
Pont-de-Roide,Pont-de-Roide,6.7666461820609864,47.383189330230245
Héricourt,Héricourt,6.7693790684661845,47.572909400117844
Mathay,Mathay,6.773601465684731,47.43581691026861
Voujeaucourt,Voujeaucourt,6.761980002457171,47.47454831256299
Montbéliard,Montbéliard,6.79677572889819,47.4963364270464
Vaivre,Vaivre,6.102155892650446,47.633977728138355
Noidans-le-Ferroux,Noidans-le-Ferroux,5.963960755959048,47.56799950662123
Aisey-Villars,Aisey-et-Richecourt,5.945961156673382,47.87645672508352
Genevreuille,Genevreuille,6.381212967244529,47.678425658803825
Savoyeux,Savoyeux,5.734522421432108,47.54489736300456
Ronchamp,Ronchamp,6.623358915027128,47.6991120214209
Jussey,Jussey,5.903594891821567,47.83705593789196
Aillevillers,Aillevillers,6.332017441299205,47.909037729329796
Plombières-les-Bains,La Vaivre,,
St-Blaise-la-Roche-Poutay,St-Blaise-la-Roche,7.165571428718572,48.407715325539854
Châtenois (Bas-Rhin),Châtenois,7.401331365912151,48.27641611439358
Bischoffsheim,Bischoffsheim,7.49795625047954,48.48701434522968
Russ-Hersbach,Wisches,7.251692730094511,48.49814216698774
Val-de-Villé,Châtenois,7.38278106955234,48.28358214543702
Dorlisheim,Dorlisheim,7.493034019441705,48.52464790963129
Duppigheim,Duppigheim,7.587072359646608,48.544042661851556
Lièpvre,Lièpvre,7.280512440831075,48.272328469691104
Fouday,Fouday,7.187395299204552,48.42524781296892
Urmatt,Urmatt,7.339126444279431,48.525715589868824
Réchicourt-le-Château,Réchicourt-le-Château,6.848322257100817,48.665120782105795
