Name,Commune,Longitude,Latitude
Brest,Brest,-4.479243011743669,48.38792979524121
Kerhuon,Le Relecq-Kerhuon,-4.3882326318055895,48.409605201316694
La Forest,La Forest-Landerneau,-4.3071911864121,48.42635046201861
Landerneau,Landerneau,-4.256576427625531,48.45374715117324
La Roche,La Roche-Maurice,-4.2052246276462135,48.47408756928626
Quimper,Quimper,-4.092523298697385,47.9948683714121
Landivisiau,Landivisiau,-4.0829271858424185,48.49577732549493
Guimiliau,Guimiliau,-3.9989450773651343,48.485226749815205
St-Pol-de-Léon,St-Pol-de-Léon,-3.987357201391775,48.676823361391584
Roscoff,Roscoff,-3.9828358132084496,48.72064886373147
Plouénan,Plouénan,-3.970007778373813,48.64060862226864
St-Thégonnec,St-Thégonnec,-3.9478073806075455,48.494507074243906
Henvic,Henvic,-3.926429040876095,48.6236337817172
Pleyber-Christ,Pleyber-Christ,-3.883086229756259,48.50747856463624
Morlaix,Morlaix,-3.832477837161316,48.57798173117454
Bannalec,Bannalec,-3.7066680289723504,47.926788117965785
Carhaix,Carhaix-Plouguer,-3.5639169292028963,48.27645974077854
Quimperlé,Quimperlé,-3.552988951161868,47.86930999444454
Carnoët-Locarn,Locarn,-3.4905193806659134,48.34039896276361
Le Pénity,Duault,-3.4763547933678547,48.36454055640289
Lannion,Lannion,-3.460362272489274,48.72722615858606
Gestel,Gestel,-3.44324095590144,47.803068578129064
Callac,Callac,-3.418548488597128,48.40682753963829
Les Mais,Callac,-3.3828192436632682,48.426240661884535
Lorient,Lorient,-3.3745896768406194,47.75399826935425
Coat-Guégan,Pont-Melvez,-3.2736870776921965,48.48042532938834
Moustéru,Bourbriac,-3.242782593047977,48.50779865852206
Brélidy-Plouëc,Plouëc-du-Trieux,-3.196262281923392,48.66919617633935
Brandérion,Brandérion,-3.1949294911011363,47.78234896492175
Trégonneau-Squiffiec,Squiffiec,-3.1741151582598786,48.624576045306256
Gourland,Grâces,-3.166769486434044,48.561110506298114
Pontrieux-Halte,Pontrieux,-3.1642225077258006,48.698063467596064
Guingamp,Guingamp,-3.157093668214272,48.552990438861436
Pontrieux,Pontrieux,-3.1570661289395945,48.70557084895626
Traou-Nez,Plourivo,-3.1351552581003928,48.748555046136225
Frynaudour,Plourivo,-3.128588597562102,48.72796201898242
Landévant,Landévant,-3.1256384908243944,47.759518109055605
Lancerf,Plourivo,-3.1181373405541466,48.76182498430737
Landaul-Mendon,Landaul,-3.085773818880881,47.73540701544521
Paimpol,Paimpol,-3.0460204685255223,48.77663514565281
Auray,Auray,-3.0105509828722434,47.68179160860162
Châtelaudren-Plouagat,Plouagat,-2.9741649344387184,48.533233396218996
Ste-Anne,Pluneret,-2.9605809733035744,47.67850522991184
St-Brieuc,St-Brieuc,-2.7737989776724743,48.50824301357313
Vannes,Vannes,-2.7524038812162512,47.66520979265519
Yffiniac,Yffiniac,-2.6522125948567945,48.47019943491513
Lamballe,Lamballe,-2.5114605660362828,48.46594346923322
Le Croisic,Le Croisic,-2.506895318720328,47.289762242015115
Batz-sur-Mer,Batz-sur-Mer,-2.4790683443610244,47.28094955600504
Questembert,Questembert,-2.449620953911625,47.683185303972046
Plestan,Plestan,-2.4420676366208736,48.42553840006436
Le Pouliguen,Le Pouliguen,-2.433227448786401,47.28262437643912
La Baule-Escoublac,La Baule-Escoublac,-2.3892599777754397,47.28869813033697
La Baule-les-Pins,La Baule-Escoublac,-2.3648225128958376,47.28370632606418
Plénée-Jugon,Plénée-Jugon,-2.354648763203393,48.37664297834419
Pornichet,Pornichet,-2.3447048449348613,47.27066127767772
Landébia,Landébia,-2.3313009843699817,48.50718444179737
Malansac,Malansac,-2.2953410975949944,47.67554186869082
Broons,Broons,-2.23584863546406,48.33337010660815
Plancoët,Plancoët,-2.2288084440080365,48.52143574734171
St-Nazaire,St-Nazaire,-2.2113248000047743,47.28676363953024
Penhoët,St-Nazaire,-2.2007855058852326,47.29047012989129
La Croix-de-Méan,St-Nazaire,-2.1930931497631807,47.30061347537988
Montoir-de-Bretagne,Montoir-de-Bretagne,-2.1616012671563407,47.32074062561389
Caulnes,Caulnes,-2.1554786779518045,48.2843914107651
Quédillac,Quédillac,-2.145221664824248,48.248597523539416
Corseul-Languenan,Languenan,-2.141517033211617,48.495955781575574
La Brohinière,Montauban-de-Bretagne,-2.1104779302744925,48.21346883098549
Redon,Redon,-2.088521843296661,47.65178482242304
Pontchâteau,Pontchâteau,-2.088383489771248,47.4363076121587
Sévérac,Sévérac,-2.0727871448485984,47.54983414389597
Donges,Donges,-2.071624327315269,47.30873250139083
Dinan,Dinan,-2.0533876645378752,48.45702207710471
Montauban-de-Bretagne,Montauban-de-Bretagne,-2.052807491308817,48.19003805004627
Drefféac,Drefféac,-2.049996132974796,47.482266599289616
St-Gildas-des-Bois,St-Gildas-des-Bois,-2.044122473099628,47.51643540736758
St-Malo,St-Malo,-2.004051313466777,48.6465302973296
La Hisse,St-Samson-sur-Rance,-2.003131989956737,48.49607050689392
Les Moutiers-en-Retz,Les Moutiers-en-Retz,-2.001416008442376,47.0619227003358
Pleudihen,Pleudihen-sur-Rance,-1.9616888510974264,48.499406343345896
Savenay,Savenay,-1.9557478901374268,47.360102663994745
Bourgneuf-en-Retz,Bourgneuf-en-Retz,-1.955093984580618,47.04698051501943
Montfort-sur-Meu,Montfort-sur-Meu,-1.9488124146633248,48.13908925033736
St-Gilles-Croix-de-Vie,St-Gilles-Croix-de-Vie,-1.9416096081871947,46.69649178580117
Miniac,Miniac-Morvan,-1.9149128707848992,48.53148250249678
Massérac,Massérac,-1.913873068532598,47.6746637776041
La Gouesnière-Cancale,St-Méloir-des-Ondes,-1.9058914609971809,48.61441437058002
Breteil,Breteil,-1.881371759699423,48.140768930060936
Challans,Challans,-1.8714557869450368,46.84425765624209
Beslé,Guémené-Penfao,-1.870113281883948,47.69932007739704
St-Hilaire-de-Chaléons,St-Hilaire-de-Chaléons,-1.8669338619933717,47.106323984860104
Fougeray-Langon,Langon,-1.8511356217116504,47.72981320741973
Plerguer,Plerguer,-1.8505539748497368,48.53148389771887
Cordemais,Cordemais,-1.8464028687005385,47.30218811667678
La Fresnais,La Fresnais,-1.8431700608326755,48.59366306337683
Machecoul,Machecoul,-1.823075713505101,46.990737529943715
L'Hermitage-Mordelles,L'Hermitage,-1.8192115152677604,48.12333577461155
Messac-Guipry,Messac,-1.8185528943247031,47.822313153048455
Ste-Pazanne,Ste-Pazanne,-1.8178751720275863,47.102436868078975
St-Étienne-de-Montluc,St-Étienne-de-Montluc,-1.7858205921935597,47.274743472718
Hendaye,Hendaye,-1.7821121201225452,43.35333854323205
Les Sables-d'Olonne,Les Sables-d'Olonne,-1.7816333428225135,46.500180558548664
Pléchâtel,Pléchâtel,-1.7765371382437842,47.872054146360256
Olonne-sur-Mer,Olonne-sur-Mer,-1.7662528466161036,46.549220388406184
St-Senoux-Pléchâtel,St-Senoux,-1.7661353305032643,47.89787749005208
Bonnemain,Bonnemain,-1.7650851434863233,48.476297309689684
Les Deux Jumeaux,Hendaye,-1.7643241387888178,43.369975296762846
Bruz,Bruz,-1.751863126756572,48.02873873088183
Dol,Dol-de-Bretagne,-1.7498724893257498,48.5438989124489
Laillé,Guichen,-1.74943485888762,47.97104695918046
Combourg,Combourg,-1.7275018725289637,48.41615112375191
Couëron,Couëron,-1.7234557879619508,47.221994066711396
St-Jacques-de-la-Lande,St-Jacques-de-la-Lande,-1.7137448674474416,48.067572719890535
Rennes,Rennes,-1.70053591391335,48.10647919088375
Pontchaillou,Rennes,-1.6918010732042623,48.118263556361434
Dingé,Dingé,-1.6858320308083297,48.350707672331545
Bouaye,Bouaye,-1.6810094320678457,47.13797879268768
Montreuil-sur-Ille,Montreuil-sur-Ille,-1.6743390553619777,48.30717693651349
St-Médard-sur-Ille,St-Médard-sur-Ille,-1.667513154566356,48.27430081843578
St-Jean-de-Luz-Ciboure,St-Jean-de-Luz,-1.6611208755768612,43.385630538051984
St-Germain-sur-Ille,St-Germain-sur-Ille,-1.660059294471417,48.24256859137304
La Mothe-Achard,La Mothe-Achard,-1.6580306778797718,46.606836768164996
Betton,Betton,-1.634223144594651,48.181400267622394
Chevaigné,Chevaigné,-1.6309255798376718,48.20905987621851
La Poterie,Rennes,-1.6305840948465853,48.09198766148978
Cherbourg,Cherbourg-Octeville,-1.620837020380606,49.63310830892097
Guéthary,Guéthary,-1.6098691396108815,43.42532742825411
Vern,Vern-sur-Seiche,-1.5965909352175605,48.046974665413465
Chantenay,Nantes,-1.594917252652802,47.197006445696296
St-Armel,St-Armel,-1.5948547752316886,48.014160470201396
Granville,Granville,-1.586871632173377,48.83876182369026
Corps-Nuds,Corps-Nuds,-1.5753452447296863,47.9851600084036
Rezé-Pont-Rousseau,Rezé,-1.5494924828879282,47.19333466964186
Biarritz,Biarritz,-1.5467011965059916,43.459039067064325
Babinière,La Chapelle-sur-Erdre,-1.5449306110601506,47.258858612129146
Erdre-Active,La Chapelle-sur-Erdre,-1.5446200380002786,47.28298910738411
Nantes,Nantes,-1.544230274778459,47.2164535014857
La Chapelle-Aulnay,Sucé-sur-Erdre,-1.541393055983696,47.308759629047756
Sucé-sur-Erdre,Sucé-sur-Erdre,-1.5306374558539124,47.34270309289346
Noyal-Acigné,Noyal-sur-Vilaine,-1.52841295004082,48.11889445741282
Abbaretz,Abbaretz,-1.5243134666577731,47.55546171193697
Nort-sur-Erdre,Nort-sur-Erdre,-1.5034401991651145,47.44185260156143
Janzé,Janzé,-1.4978379622767402,47.95533598198707
St-Planchers,St-Planchers,-1.4900849249447317,48.83561719395482
Valognes,Valognes,-1.4803368576979012,49.50541760770657
Vertou,Vertou,-1.4779607078099417,47.18605510217721
Bayonne,Bayonne,-1.4721804251258617,43.48238247094629
Servon,Servon-sur-Vilaine,-1.463135340881243,48.11223075302593
Orval-Hyenville,Orval,-1.4614710513677571,48.99399821266422
Ondres,Ondres,-1.4568960382416112,43.56878779017317
Issé,Issé,-1.4510327756308936,47.62683893148898
Ustaritz,Ustaritz,-1.4488471081984176,43.40463594730001
Coutances,Coutances,-1.4415067598279108,49.042671838156394
Thouaré,Thouaré-sur-Loire,-1.4410410668856464,47.26508698273898
La Roche-sur-Yon,La Roche-sur-Yon,-1.437117541651215,46.68109113258075
Le Theil-de-Bretagne,Le Theil-de-Bretagne,-1.4321549870817585,47.9187278425816
Labenne,Labenne,-1.4287867645627326,43.58707120044296
Cérences,Cérences,-1.427200492932556,48.91995325990879
Folligny,Folligny,-1.408494093735334,48.83049298727163
Châteaubourg,Châteaubourg,-1.4051571846124769,48.10629591057403
Cambo-les-Bains,Cambo-les-Bains,-1.3966824192311882,43.36555793170391
La Haie-Fouassière,La Haie-Fouassière,-1.3922528262669975,47.16148711034789
Retiers,Retiers,-1.389795493132067,47.91327245102403
Mauves-sur-Loire,Mauves-sur-Loire,-1.3891236095280926,47.2928631547842
Châteaubriant,Châteaubriant,-1.3732436624320201,47.71132988066221
Bénesse-Maremne,Bénesse-Maremne,-1.3700388001254635,43.6275994871714
Avranches,Avranches,-1.3698642916354478,48.69039945436693
Le Cellier,Le Cellier,-1.3509301011197743,47.3131633554109
Le Pallet,Le Pallet,-1.3466366704701698,47.143815601866606
Les Lacs,St-Aubin-des-Landes,-1.3223472926555535,48.109081657042296
Montaigu-Vendée,Montaigu,-1.3163969087347602,46.98376391235179
Gorges,Gorges,-1.3136948356152829,47.10786193841351
Martigné-Ferchaud,Martigné-Ferchaud,-1.3134643682645375,47.83198913178168
St-Vincent-de-Tyrosse,St-Vincent-de-Tyrosse,-1.3064199257319271,43.65764559327289
Urt,Urt,-1.299755539131055,43.49939181277367
Oudon,Oudon,-1.2923237823306528,47.3431984973829
Clisson,Clisson,-1.28640768160279,47.08599734750532
La Chaize-le-Vicomte,La Chaize-le-Vicomte,-1.2822535656281937,46.6767862970208
Carentan,Carentan,-1.242069292807631,49.301755333623426
St-Geours-de-Maremne,St-Geours-de-Maremne,-1.241071350268976,43.671276975525714
St-Jean-Pied-de-Port,St-Jean-Pied-de-Port,-1.238621645776675,43.168113297949574
Fougeré,Fougeré,-1.2312389699071118,46.66508012164906
Vitré,Vitré,-1.2195581579204626,48.12208369814374
Saubusse-les-Bains,Saubusse,-1.1902780504450248,43.660233528995896
Boussay-La Bruffière,Boussay,-1.1828015969908297,47.05058005563971
Ancenis,Ancenis,-1.1777731365538755,47.36947278885226
Bournezeau,Bournezeau,-1.1776110604104528,46.651488845185106
Luçon,Luçon,-1.1674252272879222,46.46372375938146
Angoulins-sur-Mer,Angoulins,-1.1156235601119509,46.10794733842751
Peyrehorade,Peyrehorade,-1.115201805409079,43.546783721257896
St-Lô,St-Lô,-1.1029471786816731,49.11459815333768
Gujan-Mestras,Gujan-Mestras,-1.0688702164609716,44.64066139366233
Dax,Dax,-1.0664879514100605,43.70992681254756
Le Verdon,Le Verdon-sur-Mer,-1.064886696751186,45.54924765751
Chantonnay,Chantonnay,-1.0546270262215476,46.68999425821053
Lison,Lison,-1.0534386972232002,49.226912468791475
La Jarrie,La Jarrie,-1.0259283311478975,46.12147060836765
Le Teich,Le Teich,-1.0256077298254895,44.63235011251188
St-Pierre-la-Cour,St-Pierre-la-Cour,-1.0252991505882505,48.11359965015547
Royan,Royan,-1.0163681948342305,45.625725605213496
Port-Brillet,Port-Brillet,-0.9739588715536818,48.1106546644729
Rochefort,Rochefort,-0.963548062025048,45.94746632056426
Aigrefeuille-Le Thou,Le Thou,-0.9520837088782028,46.09393484633779
Ychoux,Ychoux,-0.9460284185116928,44.32915487046358
Lesparre,Lesparre-Médoc,-0.9453847844754256,45.3035111303514
Saujon,Saujon,-0.9304198523002454,45.66696039861186
Labouheyre,Labouheyre,-0.9210927558174826,44.21058713206437
Ingrandes-sur-Loire,Ingrandes,-0.9206402903806504,47.405820890354825
Puyoô,Puyoô,-0.9132691310779734,43.524930944707954
Vire,Vire,-0.9106380524032384,48.8462666479729
Morcenx,Morcenx,-0.9085587031342428,44.034004086989654
Tonnay-Charente,Tonnay-Charente,-0.8978672534235085,45.943317394255935
Le Genest,Le Genest-St-Isle,-0.8855278989137388,48.096776375085646
Le Molay-Littry,Le Molay-Littry,-0.8815891845165226,49.249208492976464
Champtocé-sur-Loire,Champtocé-sur-Loire,-0.8704801067049378,47.4103414309989
Cholet,Cholet,-0.8702964235455685,47.06618658131302
Marcheprime,Marcheprime,-0.8537476244675413,44.69053899851708
Pouzauges,La Meilleraie-Tillay,-0.814155696992413,46.75251044463558
Arengosse,Arengosse,-0.8093821272281273,44.00686780054657
Bords,Bords,-0.7985470006648815,45.89442546281429
Orthez,Orthez,-0.7670883745048203,43.48404366526759
Surgères,Surgères,-0.7620326984420913,46.11335235759793
Laval,Laval,-0.7608589127459773,48.07634359710922
Pauillac,Pauillac,-0.7551047325313479,45.20382280173109
Moulis-Listrac,Moulis-en-Médoc,-0.7446705060937799,45.08398014047938
Chalonnes,Chalonnes-sur-Loire,-0.7437967053024781,47.34278743126004
Ygos,Ygos-St-Saturnin,-0.7361946513814615,43.97828382638989
Chemillé,Chemillé,-0.7321135965170938,47.217831141534155
Louverné,Louverné,-0.7143217885692368,48.10888106533703
Gazinet-Cestas,Cestas,-0.6992749775100037,44.772173366103246
Bayeux,Bayeux,-0.6983008939713908,49.26958107576529
La Possonnière,La Possonnière,-0.6947623568161956,47.3710368136793
Margaux,Margaux,-0.6854294582889482,45.03585421890331
Mauzé,Mauzé-sur-le-Mignon,-0.6737517804300365,46.19973329084157
Cerizay,Cerizay,-0.6671289797946683,46.81734772432373
Alouette-France,Pessac,-0.659796860254482,44.79332480156728
Savennières-Béhuard,Savennières,-0.6545272950459525,47.38152499451488
St-Martin-d'Oney,St-Martin-d'Oney,-0.6516901053381375,43.930059358210656
Prin-Deyrançon,Prin-Deyrançon,-0.6364724370130495,46.21900408049304
Pessac,Pessac,-0.631981201223286,44.80432882276649
Caudéran-Mérignac,Mérignac,-0.6274455363194257,44.84255397243456
Blanquefort,Blanquefort,-0.6237741023506539,44.91756827628922
Macau,Macau,-0.6199097396610891,45.00404192885203
Parempuyre,Parempuyre,-0.6195314531210911,44.94382425007321
Saintes,Saintes,-0.6181335084445412,45.744735830799605
Oloron-Ste-Marie,Oloron-Ste-Marie,-0.6122022589686994,43.19475600274593
Ludon,Ludon-Médoc,-0.6117685232073152,44.974324081796226
Bruges,Bruges,-0.6089353584157182,44.88594609311808
Bidos,Bidos,-0.6069766623455745,43.178929808581245
Bedous,Bedous,-0.603956944390177,42.995201820410955
Sarrance,Sarrance,-0.5997248045916801,43.0497218624196
Bordeaux-St-Jean,Bordeaux-St-Jean,-0.59966761640612,44.81660195258944
Audrieu,Audrieu,-0.595249263722527,49.21631849081571
Flers,Flers,-0.5735342156088675,48.744326339473496
Artix,Labastide-Cézéracq,-0.5698747245362312,43.39281849595891
Angers-St-Laud,Angers,-0.5567952208428962,47.46436992000472
Bègles,Bègles,-0.5552170407268199,44.7994219622282
Montsûrs,Brée,-0.5513117164190743,48.141287152322356
Messei,Messei,-0.5483185131643901,48.70814129235049
Villenave-d'Ornon,Villenave-d'Ornon,-0.5474845411037581,44.76865260947629
Cadaujac,Cadaujac,-0.5379236890848973,44.75198423836627
St-Hilaire-Brizambourg,St-Hilaire-de-Villefranche,-0.5348621341976271,45.850163946574924
Cenon,Lormont,-0.5336577848979648,44.85937087648387
Cubzac-les-Ponts,Cubzac-les-Ponts,-0.5336518052033297,44.85937632927127
St-André-de-Cubzac,St-André-de-Cubzac,-0.5336507758244066,44.85937726780207
Aubie-St-Antoine,Aubie-et-Espessas,-0.5336494636861986,44.8593784649819
Gauriaguet,Gauriaguet,-0.5336476290066104,44.8593801375353
Cavignac,Cavignac,-0.5336452167285064,44.859382336783845
St-Mariens-St-Yzan,St-Yzan-de-Soudiac,-0.5336436960454118,44.85938372355725
Montendre,Montendre,-0.5336371087768449,44.85938973012964
Jonzac,Jonzac,-0.5336288798371664,44.85939723457568
Pons,Pons,-0.5336212608261645,44.8594041824566
Angers-Maître-École,Angers,-0.5324187644678151,47.46692553564868
Bassens,Bassens,-0.5224405111799664,44.901397388496285
Villeneuve-la-Comtesse,Villeneuve-la-Comtesse,-0.5130117503861215,46.09871488224444
Bretteville-Norrey,St-Manvieu-Norrey,-0.5119754707402413,49.20325790205075
St-Jean-d'Angély,St-Jean-d'Angély,-0.5097452691905225,45.940801704701826
Ogeu-les-Bains,Ogeu-les-Bains,-0.5074446160920447,43.15387465751689
St-Médard-d'Eyrans,St-Médard-d'Eyrans,-0.5043159343500676,44.71568428241115
Mont-de-Marsan,St-Pierre-du-Mont,-0.5041215859864592,43.884703925347225
Bressuire,Bressuire,-0.5030180560788763,46.82504964220667
Loulay,Loulay,-0.5016804695342356,46.043441237327784
La Gorp,Ambarès-et-Lagrave,-0.4963732559714469,44.92874552971432
Prissé-la-Charrière,Prissé-la-Charrière,-0.4935033775066854,46.15277067967188
Le Vieux-Briollay,Briollay,-0.4828485317921036,47.5736927162519
Neau,Neau,-0.4765305989958475,48.157537510820895
Trélazé,Trélazé,-0.4747393048795612,47.45421946251402
Tiercé,Tiercé,-0.4695277707626879,47.617621633630044
Beauvoir-sur-Niort,Beauvoir-sur-Niort,-0.4686828779339735,46.17679654873226
Niort,Niort,-0.4655080280513185,46.30599055020152
Étriché-Châteauneuf,Étriché,-0.4606192449381066,47.65667677103774
Buzy-en-Béarn,Buzy-en-Béarn,-0.4568186338410908,43.14667688631
Bellou-en-Houlme,Bellou-en-Houlme,-0.4517947036859062,48.71834811067557
Beautiran,Beautiran,-0.450040817665555,44.701045740128066
St-Loubès,St-Loubès,-0.4329140300528015,44.92235430221013
Marigny,Marigny,-0.42836819517337743,46.19907984544713
Portets,Portets,-0.4254081451195221,44.69292541617282
Morannes,Morannes,-0.4181228620956466,47.738861073425255
Fors,Fors,-0.406650762545785,46.23422955091696
La Bohalle,La Bohalle,-0.40079504767026014,47.434439926708144
Évron,Évron,-0.3969527158821172,48.155693198678215
Arbanats,Arbanats,-0.395514106466555,44.67432083024799
Noirterre,Bressuire,-0.3940173945015796,46.86977837629625
Gan,Gan,-0.39146276503243,43.234290646158684
St-Sulpice-Izon,St-Sulpice-et-Cameyrac,-0.39114496203670907,44.91412294201807
Pau,Pau,-0.3719877238707137,43.29203587894081
Briouze,Briouze,-0.3676103385195508,48.702014162600285
Caen,Caen,-0.3673933108303907,49.16970208666604
Podensac,Podensac,-0.3589396980012252,44.648851848911114
La Ferté-Macé,La Ferté-Macé,-0.3557740625673449,48.595538838740794
Lonlay-le-Tesson,Lonlay-le-Tesson,-0.350385821797491,48.64314840830603
Cérons,Cérons,-0.3408297352976037,44.632159173017854
Cognac,Cognac,-0.32591422005896703,45.68454005699418
Barsac,Barsac,-0.3206769431698951,44.60396200555292
St-Mathurin,St-Mathurin-sur-Loire,-0.31808567010658223,47.412218417867614
Vayres,Vayres,-0.3161215753838844,44.89662081694386
Preignac,Preignac,-0.30233166813100393,44.57831945261782
La Crèche,La Crèche,-0.2962273833156853,46.3605230135639
Assat,Assat,-0.2948879900153876,43.25431105200619
Voutré,Voutré,-0.2923145040584849,48.1340285959216
La Ménitré,La Ménitré,-0.2759829988423748,47.39730385204992
Frénouville-Cagny,Frénouville,-0.2601078119282554,49.14114275295679
Langon,Langon,-0.2556439867634756,44.555467098322325
Coarraze-Nay,Coarraze,-0.24174989960024856,43.18160567878865
Libourne,Libourne,-0.2359792104779641,44.915671649178236
St-Macaire,St-Macaire,-0.22697050676986685,44.56850752642389
Les Rosiers-sur-Loire,Les Rosiers-sur-Loire,-0.22017678853219672,47.362323593512656
Thouars,Thouars,-0.2074302884690577,46.98498345202708
Rouessé-Vassé,Rouessé-Vassé,-0.2000933325528668,48.16026022184939
Montaut-Bétharram,Montaut,-0.19804491903785326,43.1265554572465
St-Denis-de-Pile,St-Denis-de-Pile,-0.19795164441632807,44.97850876383456
St-Pierre-d'Aurillac,St-Pierre-d'Aurillac,-0.18754765447423416,44.57521874160932
Moult-Argences,Moult,-0.18641434700269816,49.1110822027491
Brion-près-Thouet,Brion-près-Thouet,-0.18498684649665315,47.04867908059225
St-Émilion,St-Émilion,-0.15915737249957226,44.88112135214965
Montreuil-Bellay,Montreuil-Bellay,-0.14790365168970498,47.12552823580612
Caudrot,Caudrot,-0.1449168431450968,44.5802046553113
Coutras,Coutras,-0.1314047206551098,45.03671730971117
Sillé-le-Guillaume,Sillé-le-Guillaume,-0.1288809403596642,48.18166721450334
Écouché,Écouché,-0.12096882611470085,48.71483763705532
Dives-Cabourg,Dives-sur-Mer,-0.10768360318535046,49.28657302870108
Noyen,Noyen-sur-Sarthe,-0.09848226566781336,47.87467624834712
Gironde,Gironde-sur-Dropt,-0.09195378797181693,44.58299090218213
Houlgate,Houlgate,-0.0771762265211692,49.30002272376925
Crissé,Crissé,-0.06561230418524866,48.16794315770506
Pamproux,Pamproux,-0.05172241967996381,46.39980312130991
St-Médard-de-Guizières,St-Médard-de-Guizières,-0.04839576446903869,45.015509528318155
Argentan,Argentan,-0.04383463849263168,48.75597443299157
Les Églisottes,Les Églisottes-et-Chalaures,-0.0436101757005662,45.09428905796061
Lourdes,Lourdes,-0.04183557605720427,43.100576605175455
Castillon,Castillon-la-Bataille,-0.04068703933829987,44.85701248338341
St-Pierre-sur-Dives,St-Pierre-sur-Dives,-0.040558107369551885,49.02325439398693
La Réole,La Réole,-0.030795563825907063,44.57976680184521
Ossun,Ossun,-0.021273763775482023,43.183398019230566
Conlie,Conlie,-0.010955510941005657,48.127224276091155
St-Seurin-sur-l'Isle,St-Seurin-sur-l'Isle,-0.0019406174141192122,45.01130602928961
Villers-sur-Mer,Villers-sur-Mer,0.01005359715555565,49.31587440070022
Lamothe-Montravel,Lamothe-Montravel,0.02152928472459865,44.85378281621925
Domfront,Domfront-en-Champagne,0.02615649626639019,48.107760807910026
La Suze,La Suze-sur-Sarthe,0.026439907924540013,47.892398496984995
Rouillé,Rouillé,0.0418964038629684,46.41874977603487
Chalais,Chalais,0.04348890603377216,45.27076524204829
Lamothe-Landerron,Lamothe-Landerron,0.045140578137401806,44.56272133449386
Tarbes,Séméac,0.06950613876239935,43.240305937362955
Trouville-Deauville,Trouville-Deauville,0.08424913258191752,49.359611534228144
Voivres,Voivres-lès-le-Mans,0.08524227235754653,47.930362250710964
Ste-Bazeille,Ste-Bazeille,0.09299244984381463,44.53251019758875
Alençon,Alençon,0.09820285224911912,48.43935805136752
La Couronne,La Couronne,0.10137433512624716,45.60489925041258
Vélines,Vélines,0.1036985094616117,44.851934556803826
La Hutte-Coulombiers,La Hutte-Coulombiers,0.1042616554121717,48.30100235542936
Luxé,Luxé,0.10928479364774514,45.88729558439641
Lusignan,Cloué,0.11656217611664635,46.43554027887006
Le Havre,Le Havre,0.12605841732600767,49.49269563728243
Angoulême,Angoulême,0.13384288154119067,45.64063431669944
Surdon,Le Château-d'Almenêches,0.13454560695140969,48.66501485085704
Montmoreau,St-Amant,0.13798350150418534,45.3981907900131
Vivoin-Beaumont,Vivoin,0.1449085782102719,48.23019899107597
St-Antoine-de-Breuilh,St-Antoine-de-Breuilh,0.15186391840583466,44.846694219773454
Port-Boulet,Chouzé-sur-Loire,0.15565051913605304,47.24866027519581
Marmande,Marmande,0.1582907705251247,44.507773904533174
Montpon-Ménestérol,Montpon-Ménestérol,0.15939471755587034,45.0062166181403
Sées,Sées,0.16627203608269386,48.59990963412721
Montivilliers,Montivilliers,0.18938905311993248,49.54285747182161
Arnage,Arnage,0.19016838079590168,47.928546912024295
Ruffec,Ruffec,0.1901904330448258,46.03063145415018
Montbizot,Montbizot,0.19091466812483426,48.15133012551761
Teillé,Teillé,0.1915173201534334,48.1813892187838
Harfleur-Halte,Harfleur,0.19217989665721746,49.50601792492922
Pont-l'Évêque,Pont-l'Évêque,0.1922135940657724,49.287087514132644
La Guierche,La Guierche,0.19321777716732247,48.11405392276398
Le Mans,Le Mans,0.19373767827698987,47.99496278334029
Harfleur,Harfleur,0.19906290934819496,49.513610890297755
Neuville-sur-Sarthe,Neuville-sur-Sarthe,0.19979014704471845,48.07039776072107
Rolleville,Rolleville,0.21620412482811285,49.58159247227933
Laigné-St-Gervais,St-Gervais-en-Belin,0.2171169760623304,47.87408630288999
St-Saviol,St-Saviol,0.2178246354634021,46.14701859092328
La Chapelle-sur-Loire,La Chapelle-sur-Loire,0.21864433916432952,47.25125666828696
Ruelle,Ruelle-sur-Touvre,0.22134335904864044,45.676344690735036
Ste-Foy-la-Grande,Ste-Foy-la-Grande,0.22148593170599026,44.836746259773435
Épouville,Épouville,0.22352701184604834,49.56358541381649
Le Grand-Jardin,Lisieux,0.2272916669554864,49.150454545802965
Lisieux,Lisieux,0.230480535139116,49.13833836091847
Épanvilliers,Blanzay,0.2358352100216395,46.22690187897098
Tournay,Tournay,0.23905708698507505,43.18341694148109
Anché-Voulon,Anché,0.2502028499055606,46.349738606158745
Chinon,Chinon,0.2509711322083734,47.162225501099826
St-Laurent-Gainneville,St-Laurent-de-Brèvedent,0.2522736643300085,49.52851378979968
Vivonne,Vivonne,0.2651342041865253,46.426482815041005
Mayet,Mayet,0.2659375327441477,47.760085237711976
Aubigné-Racan,Aubigné-Racan,0.2659478759570295,47.687010886028965
Écommoy,Écommoy,0.2690046049818696,47.82451649086021
Le Merlerault,Le Merlerault,0.28331423829434216,48.7025201714651
St-Patrice,St-Patrice,0.30973937507330324,47.28552890833407
Tonneins,Tonneins,0.3142444336603296,44.39274596782752
Vaas,Vaas,0.3165917840063815,47.67085414116615
Iteuil,Iteuil,0.31691846085491937,46.48421650972457
Capvern,Capvern,0.329604471903354,43.10350977826029
Étainhus-St-Romain,Étainhus,0.33042269040196004,49.560599400937186
Gardonne,Gardonne,0.3319676389057947,44.834667775010615
Poitiers,Poitiers,0.33278686629322524,46.58236426463122
Ligugé,Ligugé,0.33328677350263824,46.520347253016475
Aiguillon,Aiguillon,0.3350881906632269,44.29876017586198
Champagné,Champagné,0.33603471727525364,48.01999207493511
Mussidan,Mussidan,0.3539078860339317,45.03454481999586
Virville-Manneville,Virville,0.3541972127617274,49.58355832050525
Goderville,Goderville,0.36297295622890174,49.64966372965544
St-Mars-la-Brière,St-Mars-la-Brière,0.3657647873267125,48.028684482990606
Chasseneuil (Vienne),Chasseneuil-du-Poitou,0.37290077344052003,46.65191701703638
Fécamp,Fécamp,0.3739058314688636,49.75946346406018
Futuroscope,Chasseneuil-du-Poitou,0.3781034066815456,46.66982364367344
Lamonzie-St-Martin,Lamonzie-St-Martin,0.380488706369801,44.84343644898371
Jaunay-Clan,Jaunay-Clan,0.3818538820759252,46.68198061597681
Lannemezan,Lannemezan,0.3875876109403353,43.11403790015381
Port-Ste-Marie,Port-Ste-Marie,0.3885457166351385,44.25046451442933
La Rochefoucauld,La Rochefoucauld,0.3898448151260101,45.74024192809468
Montfort-le-Gesnois,Montfort-le-Gesnois,0.4065333799511941,48.040585156941496
Langeais,Langeais,0.4106773084498833,47.32400490229439
Mignaloux-Nouaillé,Mignaloux-Beauvoir,0.4118057146384928,46.52605001060869
Château-du-Loir,Château-du-Loir,0.4149695559733914,47.68314934322735
Bréauté-Beuzeville,Bréauté,0.4169155302282949,49.60345308049904
Dissay,Dissay,0.4215116453619497,46.704008629275634
Ste-Gauburge,Ste-Gauburge-Ste-Colombe,0.42889187820658986,48.7174251331736
La Tricherie,Beaumont,0.44061323762538457,46.728653726742536
Neuvic,Neuvic,0.4452123846229048,45.09983757266865
Azay-le-Rideau,Azay-le-Rideau,0.4468812905689877,47.26528551119567
Cinq-Mars,Cinq-Mars-la-Pile,0.4604522611395114,47.345053921069486
St-Paterne,St-Paterne-Racan,0.4783412446354061,47.604152066132535
Bolbec-Nointot,Bolbec,0.4849867117481938,49.59160906018728
Connerré-Beillé,Beillé,0.4869666639783437,48.07384329531561
Bergerac,Bergerac,0.4892559426484137,44.857181326922856
Naintré-les-Barres,Naintré,0.4961885277948176,46.759416182393075
St-Astier,St-Astier,0.5231277897081873,45.1389632863265
Nerpuy,Naintré,0.5256711466696894,46.78345981424409
Druye,Druye,0.5338225583763413,47.306362011285934
Savonnières,Savonnières,0.5440984949505759,47.360626678129336
Châtellerault,Châtellerault,0.5467699058394108,46.82647071088249
Neuillé-Pont-Pierre,Neuillé-Pont-Pierre,0.5649102898069096,47.55801500355749
Ingrandes-sur-Vienne,Ingrandes,0.569280649014913,46.87467981739653
Sceaux-Boësse,Boëssé-le-Sec,0.5724531971322482,48.12233132668593
Ste-Maure-Noyant,Noyant-de-Touraine,0.5770567509073571,47.1112752555605
Roumazières-Loubert,Roumazières-Loubert,0.5788109318824696,45.88935397042813
Maillé,Maillé,0.5831654391788128,47.053166423024884
Bernay,Bernay,0.5958065721583345,49.08703884113328
Auch,Auch,0.5969007206138068,43.64761708070071
Dangé,Dangé-St-Romain,0.6088106604560757,46.93787613584683
Ballan,Joué-lès-Tours,0.6146432991039702,47.33583296585494
St-Antoine-du-Rocher,St-Antoine-du-Rocher,0.6165367506341984,47.503885064078
L'Aigle,L'Aigle,0.62003780324875,48.7665705811492
Agen,Agen,0.6210483728002917,44.20834108990013
Chauvigny,Chauvigny,0.6334707048309359,46.57165062208539
Villeperdue,Villeperdue,0.6336806393875412,47.20196092222494
La Ferté-Bernard,La Ferté-Bernard,0.6391218838092982,48.18646346433232
La Douzillère,Joué-lès-Tours,0.6530013866824887,47.338661406210925
Monts,Monts,0.6547572460901697,47.28172305229394
Joué-lès-Tours,Joué-lès-Tours,0.6657807097214471,47.354468738077536
Pont-du-Casse,Pont-du-Casse,0.6759330928162438,44.232824610550935
Glos-Montfort,Glos-sur-Risle,0.6829150130851616,49.27128952170587
Château-l'Évêque,Château-l'Évêque,0.6882784125447157,45.24450264334011
Le Theil-La Rouge,La Rouge,0.6943077561215275,48.267274099278275
Tours,Tours,0.6947221708145892,47.38823086739208
Périgueux,Périgueux,0.7019478298390961,45.19429931109936
Couze,Lalinde,0.7039801334874889,44.83641138768512
Notre-Dame-d'Oé,Notre-Dame-d'Oé,0.7069732700191541,47.4596179160804
Brionne,Brionne,0.7114688242859413,49.19643355316075
Chabanais,Chabanais,0.7169108576418544,45.87246057533029
Lussac-les-Châteaux,Lussac-les-Châteaux,0.7185702473385802,46.405233047183636
Serquigny,Serquigny,0.7186822676509318,49.10807248523253
Montbazon,Montbazon,0.7214631423181357,47.29171275641739
St-Pierre-des-Corps,St-Pierre-des-Corps,0.7223597027144459,47.38502486131696
St-Gaudens,St-Gaudens,0.7287744982135916,43.104763714489685
Veigné,Veigné,0.734442350054996,47.2915030694559
Lalinde,Lalinde,0.7429248246895092,44.839505160996936
Agonac,Agonac,0.7487056242939862,45.28659007306428
Laroque,Laroque-Timbaut,0.7497411495615756,44.287500065429036
Yvetot,Yvetot,0.7501274750114086,49.62220857990936
Beaumont-le-Roger,Beaumont-le-Roger,0.7728994121383057,49.074171349180965
Esvres,Esvres,0.7815737596302582,47.2841218778662
Aubiet,Aubiet,0.7892990132456751,43.65004416378003
Mauzac,Mauzac-et-Grand-Castang,0.7899851506892608,44.855764301617775
Monnaie,Monnaie,0.7932163791396898,47.498724281711844
Penne,Penne-d'Agenais,0.7991167774007698,44.376744121035394
Niversac,St-Laurent-sur-Manoire,0.8083079815010787,45.13838581046404
Nogent-le-Rotrou,Nogent-le-Rotrou,0.8101671966021508,48.32568335262979
Saillat-Chassenon,Saillat-sur-Vienne,0.8117416754798872,45.86954035138914
Montlouis,Montlouis-sur-Loire,0.8169055503728861,47.39100335147634
Veretz-Montlouis,Montlouis-sur-Loire,0.819956989593012,47.371455942256965
Lamagistère,Lamagistère,0.8256384913411491,44.12676987497076
Trémolat,Trémolat,0.8304163450328206,44.86233058843828
Cormery,Cormery,0.833829755804239,47.26235561020565
Motteville,Motteville,0.8456854522246875,49.636959111997996
Condé-sur-Huisne,Condé-sur-Huisne,0.8489044957410873,48.3835959133747
Romilly-la-Puthenaye,Romilly-la-Puthenaye,0.8554381277758162,49.003580561735056
St-Pierre-de-Chignac,Ste-Marie-de-Chignac,0.8570806009384597,45.12347104277347
Les Versannes,La Douze,0.8577443165523323,45.08843047286084
Gimont-Cahuzac,Gimont,0.8675837143867445,43.63309623244655
Courçay-Tauxigny,Courçay,0.867626446644848,47.237833271278326
Montmorillon,Montmorillon,0.8737930550017837,46.41736546461753
Trentels-Ladignac,Trentels,0.8850326887211468,44.44296984970271
Valence-d'Agen,Valence,0.8916521333402729,44.11176905723221
Bretoncelles,Bretoncelles,0.8924610680299124,48.43275436557967
Noizay,Noizay,0.8964153999282695,47.409731141772575
St-Junien,St-Junien,0.9004046556142662,45.881378621124384
Reignac,Reignac-sur-Indre,0.9012977773197164,47.21779355348433
Château-Renault,Château-Renault,0.901441463891866,47.58783274114799
Le Buisson,Le Buisson,0.9021428664885216,44.84877181093326
St-Martin-le-Beau,St-Martin-le-Beau,0.9058591761016436,47.3550756105793
Thiviers,Thiviers,0.9161217388129468,45.408720143186905
Milhac-d'Auberoche,St-Crépin-d'Auberoche,0.9181114521343527,45.1290033155141
Verneuil-sur-Avre,Verneuil-sur-Avre,0.9293261486834166,48.74272317931936
St-Martory,St-Martory,0.9331701661690202,43.13831934212406
Conches,Conches-en-Ouche,0.9379367014881363,48.96215407348989
Monsempron-Libos,Monsempron-Libos,0.9412460698936364,44.48651614118785
Le Bugue,Le Bugue,0.9427867418795364,44.905806291346366
St-Brice-sur-Vienne,St-Brice-sur-Vienne,0.9522527294532188,45.87811742813138
Mauzens-Miremont,Mauzens-et-Miremont,0.9569541143163548,44.977276845645505
Lathus,Lathus-St-Rémy,0.9650373946411605,46.338102890734426
Chambourg,Chambourg-sur-Indre,0.9654243523727002,47.18165119449651
Boussens,Boussens,0.9718426907815176,43.179176410227
La Coquille,La Coquille,0.9744162452795686,45.54069297172124
Limeyrat,Limeyrat,0.9777561219299143,45.15624949745529
Amboise,Amboise,0.9811448600580964,47.421508738952035
Siorac-en-Périgord,Siorac-en-Périgord,0.9844291205482064,44.81974617484593
Bléré-la-Croix,La Croix-en-Touraine,0.9878429921208728,47.337847248994805
Loches,Loches,1.0009788847912129,47.13040196262713
Les Eyzies,Les Eyzies-de-Tayac-Sireuil,1.0082504108899424,44.94113229605126
St-Victurnien,St-Victurnien,1.0097934525379204,45.876681187371034
Elbeuf-St-Aubin,St-Aubin-lès-Elbeuf,1.0104007811696616,49.30276778901842
La Loupe,La Loupe,1.0107432525064246,48.473905075795145
Sauveterre-la-Lémance,Sauveterre-la-Lémance,1.0115845310578682,44.58947576134732
Belvès,Belvès,1.0118864967663226,44.777374908386776
St-Amand-de-Vendôme,St-Amand-Longpré,1.0119738707968045,47.69303595599551
Perrusson,Perrusson,1.0140204364694685,47.10118387072604
Martres-Tolosane,Martres-Tolosane,1.0157666461637984,43.1959630914845
Bussière-Galant,Bussière-Galant,1.0261401206022458,45.607619726961495
Malaunay-Le Houlme,Malaunay-Le Houlme,1.033729594370428,49.522565498069255
La Bonneville-sur-Iton,La Bonneville-sur-Iton,1.0345259092855412,48.987908601825715
Clères,Clères,1.0460924532743772,49.632948061013444
Bellac,Bellac,1.0462434288404088,46.125259801498395
Limeray,Limeray,1.0495916649448782,47.44995973202956
Maromme,Notre-Dame-de-Bondeville,1.0508129362948122,49.47995060622689
St-Aubin-sur-Scie,St-Aubin-sur-Scie,1.0665772837384753,49.8707884314073
Vendôme,Vendôme,1.067141369546662,47.80203153447201
Thenon,Ajat,1.0689989299512217,45.160018266999685
Montville,Eslettes,1.069874551174672,49.5512072804505
Droué,Droué,1.072120730092355,48.04354699214503
Moissac,Moissac,1.0773874022480605,44.10241148936118
Dieppe,Dieppe,1.0791737236794958,49.913876186251116
Le Dorat,Le Dorat,1.0793586692076786,46.21097510473997
Cazères-sur-Garonne,Cazères,1.082233193226557,43.212734533765506
L'Isle-Jourdain,L'Isle-Jourdain,1.0898587722800728,43.61726804056734
Rouen-Rive-Droite,Rouen,1.0942335262602647,49.4491878684027
Auffay,Auffay,1.0984404846926932,49.716190846765
Tourville,Tourville-la-Rivière,1.0985098698794382,49.32455521261547
Sotteville,Sotteville,1.101571483311934,49.41623397488882
Oissel,Oissel,1.1022829008373112,49.34305349147479
Fléré-la-Rivière,Fléré-la-Rivière,1.1088294670826468,47.02141318087097
St-Étienne-du-Rouvray,St-Étienne-du-Rouvray,1.1095858062861432,49.377126807968104
St-Victor,St-Maclou-de-Folleville,1.1098791141183326,49.6771262477806
Longueville-sur-Scie,Longueville-sur-Scie,1.1106116102072858,49.79175692319872
Castelsarrasin,Castelsarrasin,1.1144259606267382,44.04039402747942
Courtalain-St-Pellerin,St-Pellerin,1.1268297272993089,48.0735645351356
Arrou,Arrou,1.128644199449027,48.09990951236969
Lafarge,St-Hilaire-les-Places,1.130877718332544,45.63402822958636
Chissay-en-Touraine,Chissay-en-Touraine,1.1336838784705443,47.334955460932576
Pezou,Pezou,1.1410136226400156,47.86735974833991
Pontgouin,Pontgouin,1.1417600670465908,48.47803747669013
Aixe-sur-Vienne,Aixe-sur-Vienne,1.1456476252049828,45.79649852975975
Mérenvielle,Mérenvielle,1.1506411700448396,43.636582768881254
Nantiat,Nantiat,1.1564793627275225,46.00557306880422
Pont-de-l'Arche,Igoville,1.1596604445564829,49.316910719160795
La Bachellerie,St-Rabier,1.1601675535407838,45.151080625749046
Brou,Brou,1.160434237543858,48.21560010971405
St-Martin-du-Vivier,St-Martin-du-Vivier,1.1614507537475391,49.470384543909034
Peyrilhac-St-Jouvent,Peyrilhac,1.170073031698384,45.959766122719756
Montrichard,Montrichard,1.1718058941016842,47.343805335665465
Nieul,Nieul,1.1724012464034643,45.92737949022553
Nexon,Nexon,1.1783095433746116,45.68907647955986
Nonancourt,Nonancourt,1.192839793195551,48.775607268571356
L'Aiguille,Bosmie-l'Aiguille,1.2051075616552456,45.778321832380975
St-Hilaire-la-Gravelle,St-Hilaire-la-Gravelle,1.206285803644958,47.92306647326621
Fréteval-Morée,Fréteval,1.2116080688816222,47.89191878889317
Carbonne,Carbonne,1.211692170573849,43.29775347584915
La Meyze,La Meyze,1.2126024178798154,45.62079414050196
Lavilledieu,La Ville-Dieu-du-Temple,1.2150383028050888,44.03545953997265
Sarlat,Sarlat-la-Canéda,1.2184739482481413,44.87747517897749
St-Pierre-du-Vauvray,Val-de-Reuil,1.2245202688060708,49.23432189742479
Val-de-Reuil,Val-de-Reuil,1.2248448872497413,49.275526455753706
Condat-le-Lardin,Le Lardin-St-Lazare,1.2264493725162018,45.12665773700414
Courville-sur-Eure,Courville-sur-Eure,1.2348834002330062,48.45158963723648
Brax-Léguevin,Brax,1.2372476252369415,43.61463097496825
Clion-sur-Indre,Clion,1.238724741367318,46.945200927145365
Cloyes,Cloyes-sur-le-Loir,1.2433877970060625,47.99227491256414
Illiers-Combray,Illiers-Combray,1.2449917381828244,48.304239238630934
Morgny,Morgny-la-Pommeraye,1.2478006106475579,49.523175878440505
Limoges-Montjovis,Limoges,1.2515967759570237,45.83843758054152
Longages-Noé,Longages,1.2517287337964793,43.355621290455055
Limoges-Bénédictins,Limoges-Bénédictins,1.2583408042827977,45.824019124253766
Montbartier,Montbartier,1.2644967529946476,43.92414782214016
Dieupentale,Dieupentale,1.2758206750919772,43.86553191166729
Longuerue-Vieux-Manoir,Vieux-Manoir,1.276733910125994,49.556788208426134
Magny-Blandainville,Magny,1.2810591437831762,48.334259698418656
Fauga,Le Fauga,1.2820111929291729,43.40371898395108
Solignac-Le Vigen,Le Vigen,1.2843668511888526,45.75689797719125
Pibrac,Pibrac,1.2893007553110816,43.6215242010746
Grisolles,Grisolles,1.3020862253539431,43.827394407591115
Coussac-Bonneval,Coussac-Bonneval,1.311166875374606,45.507531324852934
Muret,Muret,1.3237125953595537,43.464060980106666
Bailleau-le-Pin,Bailleau-le-Pin,1.3248387431509538,48.36686369862696
St-Aubin-St-Luperce,St-Aubin-des-Bois,1.3317389520264484,48.44766257513189
Montérolier-Buchy,Montérolier-Buchy,1.3320111718612997,49.60231917552089
Colomiers,Colomiers,1.3344733282103642,43.6034491010247
Châteaudun,Châteaudun,1.3383790958612118,48.07318380474969
Montauban-Ville-Bourbon,Montauban,1.3411272415071545,44.014195331668475
Pierre-Buffière,Pierre-Buffière,1.3460527097244668,45.700040787559864
Gaillon-Aubevoye,Aubevoye,1.3524378463508753,49.17476031524398
Les Ramassiers,Toulouse,1.3527654315470519,43.602518852973404
La Chaussée-St-Victor,La Chaussée-St-Victor,1.3544202800267977,47.613178498938076
Dreux,Vernouillet,1.3665730861593102,48.72968627977278
St-Martin-du-Touch,Toulouse,1.3714182382642106,43.59985959731223
St-Jory,St-Jory,1.3718748812134292,43.737870732594786
La Taye,St-Georges-sur-Eure,1.3736807014831298,48.4079057147229
Les Bardys,St-Priest-Taurion,1.3785511169874691,45.906249261737365
St-Aignan-Noyers,Noyers-sur-Cher,1.3839783783991664,47.28687220276078
Lardenne,Toulouse,1.384146118118102,43.5965751605719
Portet-St-Simon,Portet-St-Simon,1.3860411076695625,43.52436641696117
Bonneval,Bonneval,1.3861496075647284,48.186242636612576
Pompadour,Arnac-Pompadour,1.3872301907852242,45.39519304516893
Lubersac,Lubersac,1.3888740465284608,45.44453269507982
Amilly-Ouerray,Amilly,1.3892451053829489,48.43830057001155
Gourdon,Gourdon,1.3895062409113836,44.74153911576553
Vignols-St-Solve,St-Solve,1.397619507972418,45.31299147973029
St-Aulaire,St-Aulaire,1.3985972190201323,45.249142775582584
Pins-Justaret,Pins-Justaret,1.3997314785203747,43.47889143726993
St-Priest-Taurion,St-Priest-Taurion,1.4006698198516636,45.887222335894755
Le Toec,Toulouse,1.4015258177026697,43.59552142796994
Menars,Menars,1.405640971899316,47.64502956628932
Objat,Objat,1.406828483895449,45.264712875393016
Ambazac,Ambazac,1.4088267397557777,45.953832158374226
Lacourtensourt,Toulouse,1.4141740595400896,43.663537282548596
Buzançais,Buzançais,1.4165978645194957,46.88814364076068
Eu,Eu,1.4168007584681843,50.0543370180356
Galliéni-Cancéropole,Toulouse,1.4202021434067564,43.572133054000425
Vénerque-le-Vernet,Vernet,1.4258991428294745,43.43331807556815
St-Agne,St-Agne,1.4277828501424157,43.569509162004394
Le Burg,Varetz,1.4296945827843426,45.21628449629185
Bersac,Bersac-sur-Rivalier,1.4323425361997122,46.08618159208703
Cahors,Cahors,1.4328393239538313,44.44877611657221
Fromental,Fromental,1.4349176536295425,46.17320437330629
Sommery,Sommery,1.4357767694916868,49.62946306445018
Luçay-le-Mâle,Luçay-le-Mâle,1.4360298212491218,47.13305556489261
Brignac,Royères,1.4406218230630563,45.863767732060175
Magnac-Vicq,Vicq-sur-Breuilh,1.4434787547613206,45.62951277801626
Bueil,Bueil,1.4435485003726451,48.92525667181215
Albias,Albias,1.4439038703221398,44.091373184833415
Varetz,Varetz,1.447409972667475,45.19111014019619
Toulouse-Matabiau,Toulouse-Matabiau,1.4526411938500077,43.61648864378069
Lucé,Lucé,1.4530178410011931,48.43670471832185
Suèvres,Suèvres,1.4546821351153945,47.680632998722544
Souillac,Souillac,1.4664020288619928,44.90229463425777
Auterive,Auterive,1.4685898311353338,43.348892896150254
Chartres,Chartres,1.4692511025181942,48.44657616436999
Allassac,Allassac,1.4727840431190342,45.25940042235733
St-Sulpice-Laurière,St-Sulpice-Laurière,1.4737453317636449,46.04841813858183
Vernon-Giverny,Vernon,1.4784640315589346,49.09116847125959
St-Germain-les-Belles,St-Germain-les-Belles,1.4792285754198435,45.61048331638584
Montaudran,Toulouse,1.480423281111991,43.57335785693056
La Jonchère,La Jonchère-St-Maurice,1.4822365973152545,45.99547345430207
La Souterraine,La Souterraine,1.490691444529265,46.24174073727861
La Gauterie,Veuil,1.4916004821117674,47.13981962047847
Montpezat,Montpezat-de-Quercy,1.5049749421887473,44.26740511835433
Mer,Mer,1.5063016730769758,47.70594751317864
Lalbenque-Fontanes,Lalbenque,1.511654329335094,44.333043031152975
Labège-Innopole,Labège,1.5124481817110509,43.5478536957706
Vigeois,Vigeois,1.51591711973488,45.383269090225824
Argenton-sur-Creuse,Argenton-sur-Creuse,1.5161303403795363,46.59453944164937
Cintegabelle,Cintegabelle,1.5205650372592063,43.305245269871435
La Villette-St-Prest,St-Prest,1.5230253860514045,48.48261879661533
Montrabé,Montrabé,1.5250887087798526,43.644805933015526
Brive-la-Gaillarde,Brive-la-Gaillarde,1.5281114716445274,45.15225942352765
Labège-Village,Labège,1.5331491230789245,43.53029730944562
Caussade,Caussade,1.5331666986485433,44.16152310477155
Le Pigeon,Baladou,1.5361396530083615,44.90867089475714
Woincourt,Woincourt,1.5371545802383335,50.05873568303047
La Porcherie,La Porcherie,1.5376134443521619,45.574719490784084
Serqueux,Serqueux,1.5396514964273715,49.631371937050226
Masseret,Masseret,1.5412259461592512,45.53692643123139
Bréval,Bréval,1.5418097324660454,48.94339458515851
Escalquens,Escalquens,1.542510517783586,43.51673973297584
Selles-sur-Cher,Selles-sur-Cher,1.546144164943466,47.28188791364478
St-Sébastien,St-Sébastien,1.5482782259346937,46.388246763542384
St-Denis-des-Murs,St-Denis-des-Murs,1.5511154435710734,45.78907725482234
Éguzon,Éguzon-Chantôme,1.5520576104615118,46.44297945641371
Longroy-Gamaches,Longroy,1.5525274581359072,49.98204105867524
Jouy,Jouy,1.5576594966251764,48.51003929702817
Niherne,Niherne,1.558255072697893,46.828263964096344
Valençay,Valençay,1.5585000111716307,47.163082483538474
Gragnague,Gragnague,1.5678112949855825,43.6965261900789
Uzerche,Uzerche,1.57059935863006,45.44141182154978
Saverdun,Saverdun,1.5706935050056938,43.239378822243786
Montlaur,Montlaur,1.5785492516508004,43.474817962815095
Bonnières,Bonnières-sur-Seine,1.58161111135634,49.03874367959271
Marsac,Marsac,1.5857098513927563,46.09421818114152
St-Piat,St-Piat,1.5902488808311113,48.542884121279535
Maintenon,Maintenon,1.5926522586116034,48.58562209530172
Tarascon-sur-Ariège,Tarascon-sur-Ariège,1.5999864443371872,42.84948834029015
Turenne,Turenne,1.6007429273061002,45.0378312288653
Foix,Foix,1.6068841710125636,42.969648997313264
St-Jean-de-Verges,Crampagna,1.608078902407974,43.012207113683175
Martel,Martel,1.60834318238829,44.93335797751998
Boulogne-Tintelleries,Boulogne-sur-Mer,1.6093352974135506,50.72731902983388
Vernet-d'Ariège,Le Vernet,1.6116070727739369,43.18934614579822
Wimille-Wimereux,Wimereux,1.6137397960702673,50.76418086676063
Varennes-sur-Fouzon,Varennes-sur-Fouzon,1.6145845348494852,47.2144220139427
Dannes-Camiers,Camiers,1.6148668835349744,50.57625634487162
Pamiers,Pamiers,1.6195981760446414,43.116113187989036
Ussat-les-Bains,Ornolac-Ussat-les-Bains,1.6202559675126165,42.823401476710785
Baziège,Baziège,1.6212844201741534,43.45319772294092
Voves,Voves,1.622200291347836,48.275077931577684
Beaugency,Beaugency,1.6259065661099268,47.77848609520921
Blangy-sur-Bresle,Blangy-sur-Bresle,1.6259542068044774,49.93252195847866
Pont-de-Briques,St-Étienne-au-Mont,1.6267060552172088,50.682867875823796
Mercus-Garrabet,Mercus-Garrabet,1.6272443914524182,42.8770836016602
Varilhes,Varilhes,1.6284323717695817,43.04150500836929
Rosny-sur-Seine,Rosny-sur-Seine,1.6301184894731915,48.997391608149435
Chepy-Valines,Chépy,1.6358775250018078,50.068273334840214
St-Paul-St-Antoine,St-Paul-de-Jarrat,1.6406134161038182,42.919347777427866
Aubazine-St-Hilaire,St-Hilaire-Peyroux,1.6418522708950478,45.181786768460796
Étaples-Le Touquet,Étaples,1.6428425981140602,50.51671935537149
Les Quatre-Routes,Les Quatre-Routes-du-Lot,1.643741723887314,44.997666680782736
Châteauneuf-Bujaleuf,Neuvic-Entier,1.6453180876037374,45.7593787505069
Chabris,Chabris,1.6460797743613451,47.255100199984426
Rocamadour-Padirac,Rocamadour,1.6574714174672611,44.818190489513476
Villenouvelle,Villenouvelle,1.6609677209729392,43.43306615214525
St-Denis-près-Martel,St-Denis-lès-Martel,1.6664958614371763,44.94571803823343
Hesdigneul,Hesdigneul-lès-Boulogne,1.666817540767514,50.66096776465705
Baule,Baule,1.667899003999119,47.81148702670024
Gièvres,Gièvres,1.6680369053472213,47.27903366095384
Vieilleville,Vieilleville,1.671710881358411,46.08892502640087
Pruniers,Gièvres,1.6722577750863656,47.3131560148732
Rue,Rue,1.6758834309878827,50.27317576435751
Châteauroux,Châteauroux,1.6790393008297275,46.80088643266406
St-Sulpice,St-Sulpice,1.6805264592489368,43.775104038353994
Épernon,Épernon,1.6816953407215238,48.60508701664293
Les Cabannes,Les Cabannes,1.68626685124549,42.78643042874622
Meung-sur-Loire,Meung-sur-Loire,1.6918390813637083,47.83000605289163
Cornil,Cornil,1.6977987748548415,45.21519625713731
Rabastens-Couffouleux,Coufouleux,1.7314952332509146,43.81992526620754
Marquise-Rinxent,Rinxent,1.7315168818429376,50.805390655180474
Montaigut,Montaigut-le-Blanc,1.7339695438538791,46.13689280143591
Faubourg-d'Orléans,Romorantin-Lanthenay,1.7402342256062011,47.366833345124405
St-Ay,St-Ay,1.74976615763334,47.863047055007016
Luzenac-Garanou,Garanou,1.7532404304103282,42.76430323973474
Les Cauquillous,Lavaur,1.754566424314565,43.73413477690475
Aumale,Aumale,1.7564136771392924,49.76501021704837
Tulle,Tulle,1.7574242165115923,45.257940015046756
Déols,Montierchaume,1.7630689399057615,46.836743444270404
Auneau,Roinville,1.7684887088116727,48.43245526542901
Villefranche-sur-Cher,Villefranche-sur-Cher,1.7685041198150238,47.294942498383406
Le Haut-Banc,Rety,1.7718423609946061,50.8162071830948
Gazeran,Gazeran,1.7718441968915186,48.62596796469672
Abancourt,Abancourt,1.774495414204267,49.68552581891906
Puybrun,Puybrun,1.7842626573000733,44.921716616836996
Pihen,Pihen-lès-Guînes,1.7859145450816545,50.87315580206878
Avignonet,Avignonet-Lauragais,1.7883460562579392,43.36352973250947
Villeherviers,Villeherviers,1.7973070617524862,47.369371445261756
Lisle-sur-Tarn,Lisle-sur-Tarn,1.8084637939751227,43.857020989337435
Caffiers,Caffiers,1.8114816653086032,50.85061405089331
Calais-Fréthun,Fréthun,1.811555402785079,50.9015707880651
Lavaur,Lavaur,1.8131149279477767,43.70355914557218
Abbeville,Abbeville,1.8210262330633884,50.105145478473986
Porté-Puymorens,Porta,1.8248422621738487,42.538959362402785
Fouilloy,Fouilloy,1.8254920321201598,49.736418738205224
Langon (Loir-et-Cher),Langon,1.8262070039922165,47.28482129602431
La Chapelle-St-Mesmin,La Chapelle-St-Mesmin,1.827004302449144,47.892988923412254
Feuquières-Broquiers,Feuquières,1.8310815471732984,49.65451054414749
Rambouillet,Rambouillet,1.831365471508512,48.643300507903575
Ax-les-Thermes,Ax-les-Thermes,1.8334666264609605,42.72477143473176
Loreux,Loreux,1.834338665664359,47.390203008174936
Mérens-les-Vals,Mérens-les-Vals,1.83733661606178,42.65936456855758
Bretenoux-Biars,Biars-sur-Cère,1.8441277827072524,44.92753201313111
Les Fontinettes,Calais,1.8499614099419361,50.94058380754782
Calais-Ville,Calais,1.8504759918471545,50.953415887188775
Neuvy-Pailloux,Neuvy-Pailloux,1.866020530373801,46.884642396004885
Assier,Assier,1.8694290482384368,44.67467122400689
Guéret,Guéret,1.872366618448216,46.17501366564412
Mennetou-sur-Cher,Mennetou-sur-Cher,1.8767518573599988,47.26893883665513
Chevilly,Chevilly,1.8793016738189368,48.02639915003362
Corrèze,St-Priest-de-Gimel,1.8796394943614485,45.32876581451239
Artenay,Artenay,1.882903505095287,48.079727167817424
Cercottes,Cercottes,1.884881731972028,47.98539646254858
Lexos,Varen,1.8863037508639795,44.14218606952575
Gaillac,Gaillac,1.8955784870458687,43.90652484109935
Pont-Remy,Pont-Remy,1.8989393455679,50.047244582123405
Beau-Marais,Calais,1.8991673196065888,50.945374237372256
Cordes-Vindrac,Vindrac-Alayrac,1.8996665395919388,44.06781039295909
Latour-de-Carol-Enveitg,Enveitg,1.9044356156654008,42.45891597043509
Orléans,Orléans,1.9047597010918704,47.90815419279802
Châtres (Loir-et-Cher),Châtres-sur-Cher,1.911493973451021,47.26330694473115
Château-Gaillard,Santilly,1.9122192339378024,48.14035752093685
Béna-Fanès,Enveitg,1.9169819460654811,42.45797619025011
Selles-St-Denis,Selles-St-Denis,1.9224205455896881,47.38850004436025
Bugeat,Bugeat,1.9247013071166457,45.600671390919544
Eyrein,Eyrein,1.930243520553092,45.3402623558689
Laval-de-Cère,Laval-de-Cère,1.9317057080515343,44.951170797577724
La Ferté-St-Aubin,La Ferté-St-Aubin,1.9318186579784635,47.722191820898104
Thénioux,Thénioux,1.936738384033836,47.256334028548366
Tessonnières,Gaillac,1.9379128726223336,43.92874377889215
Grandvilliers,Halloy,1.9387286824793684,49.659261837964
Toury,Toury,1.9393408366635727,48.19229349102577
Ur-les-Escaldes,Ur,1.940466997147396,42.45747121161789
Bourg-Madame,Bourg-Madame,1.9486839789657344,42.43241333953657
Castelnaudary,Castelnaudary,1.951000589400768,43.31205723252482
Marseille-en-Beauvaisis,Marseille-en-Beauvaisis,1.9546841907723438,49.57095250613924
La Ferté-Imbault,La Ferté-Imbault,1.9583470319540344,47.38360140613189
Laguépie,Laguépie,1.9694343320133856,44.145478825299904
Pont-d'Ardres,Ardres,1.9713197812386365,50.892092526810806
Boisseaux,Boisseaux,1.972591773181168,48.25530706942869
Damiatte-St-Paul,Damiatte,1.9742599651519168,43.656359465033724
Najac,Najac,1.9764891494718224,44.22246465258018
Osséja,Osséja,1.9770661792954325,42.4199297462994
Pérols,Pérols-sur-Vézère,1.9776872272458461,45.584804491064034
Montaignac-St-Hippolyte,Montaignac-St-Hippolyte,1.9787984823620104,45.35405232684415
Issoudun,Issoudun,1.987487716284132,46.95199502559162
Milly-sur-Thérain,Milly-sur-Thérain,1.988638832384276,49.503863083002024
Poix-de-Picardie,Poix-de-Picardie,1.9898669231650168,49.77792279096178
St-Omer-en-Chaussée,St-Omer-en-Chaussée,1.9969374240896909,49.53018327274132
Angerville,Angerville,2.002985423153945,48.31036081579418
Dourdan,Dourdan,2.0098261483531417,48.533576917580454
Ste-Léocadie,Ste-Léocadie,2.010769165615426,42.441308040980225
Herchies,Herchies,2.0111493272948118,49.487873637729614
Rosiers-d'Égletons,Rosiers-d'Égletons,2.011951709701924,45.3768598951412
Estavar,Estavar,2.0178199926574703,42.463245926187646
Lamotte-Beuvron,Lamotte-Beuvron,2.0217452086543592,47.59598803324293
Nortkerque,Nortkerque,2.023379597770227,50.88288290487031
Busseau-sur-Creuse,Ahun,2.0238443649555773,46.12303673780821
Marssac-sur-Tarn,Marssac-sur-Tarn,2.0268949929034727,43.91501708036204
Err,Err,2.0288892500148683,42.442767182008296
Lamativie,Lamativie,2.0298299312900583,44.98070604118577
Monnerville,Monnerville,2.031020422674964,48.347252262438936
Ste-Lizaigne,Ste-Lizaigne,2.0314382518096963,47.006449977445364
Saillagouse,Saillagouse,2.0321882151214337,42.45673980815688
Nouan-le-Fuzelier,Nouan-le-Fuzelier,2.03248673673484,47.53653451674211
Diou (Indre),Lazenay,2.0334133900397666,47.04664591610387
Figeac,Figeac,2.036038501644137,44.60412369594922
Font-Romeu-Odeillo-Via,Font-Romeu-Odeillo-Via,2.0385041166322417,42.49121703762055
Theillay,Theillay,2.0446699568405617,47.31743577966122
Salbris,Salbris,2.046734161195332,47.42838229357496
Reuilly,Reuilly,2.0469700812659006,47.089611944054774
Guillerval,Guillerval,2.058978482949174,48.37361195544384
Capdenac,Capdenac,2.0597197669778167,44.58421060539925
Égletons,Égletons,2.0647144678348104,45.402497151220466
Beauvais,Beauvais,2.06520881850912,49.43043997454667
Villeneuve-d'Aveyron,Villeneuve,2.0661675244620565,44.429086067854186
Hangest,Hangest-sur-Somme,2.066573743880108,49.98213491009388
Audruicq,Audruicq,2.0778770206226334,50.8752823382867
Bolquère-Eyne,Bolquère,2.0848848911335347,42.498295605143774
Lavaveix-les-Mines,Lavaveix-les-Mines,2.0892001381781733,46.07889918154853
Vielmur-sur-Agout,Vielmur-sur-Agout,2.08941722458486,43.62410047594813
Vierzon-Forges,Vierzon,2.09583755617808,47.21413101276714
Namps-Quevauvillers,Namps-Maisnil,2.1052807319252844,49.8081462216617
Mont-Louis-La Cabanasse,La Cabanasse,2.1132280396853567,42.50196419459359
St-Sulpice-Auteuil,St-Sulpice,2.1161301566180644,49.34736621410172
Bram,Bram,2.1200369559188954,43.24377771088165
Gravelines,Gravelines,2.1251508279813605,50.978652351163305
Méru,Méru,2.1323187163077004,49.232479916463525
Versailles-Chantiers,Versailles,2.1361528342677185,48.79551512858427
Laboissière-le-Déluge,Laboissière-en-Thelle,2.136162166775652,49.288495150682685
Planès,Planès,2.1368877803522515,42.50103720180767
Jassonneix,Meymac,2.1397087445917067,45.54361112712432
Albi-Madeleine,Albi,2.1410246166339446,43.938620340854015
Picquigny,Picquigny,2.1432900237355894,49.946149775489175
Carmaux,Carmaux,2.1518925109510003,44.04885485361096
Étampes,Étampes,2.156512864320726,48.43555264201621
Ruminghem,Ruminghem,2.1595891769297566,50.86134464617019
Sauto,Sauto,2.159738420428227,42.50617882069271
Bagnac,Bagnac-sur-Célé,2.160130050569516,44.665106978989925
Aubusson,Aubusson,2.1607668002621025,45.96053639366278
Foëcy,Foëcy,2.162645373864507,47.17563873834608
Meymac,Meymac,2.1636978616771723,45.53002999690653
Felletin,Felletin,2.169456195182989,45.8865024088584
Esches,Esches,2.170617493219589,49.21248581843525
Rochy-Condé,Rochy-Condé,2.1727237435373317,49.39836431883514
Parsac-Gouzon,Parsac,2.1744913491642213,46.1983389428294
Quillan,Quillan,2.1817445094816863,42.87360927784872
Laroquebrou,Laroquebrou,2.192861260123337,44.96407265711421
Bourbourg,Bourbourg,2.1958615543477142,50.95273042792849
Maurs,Maurs,2.199829972954882,44.70602575389665
Montreuil-sur-Thérain,Montreuil-sur-Thérain,2.19992191304832,49.38168495792057
Ailly-sur-Somme,Ailly-sur-Somme,2.2007286318560526,49.92846823712132
Bornel-Belle-Église,Bornel,2.2071015826935616,49.19454069581453
Mehun-sur-Yèvre,Mehun-sur-Yèvre,2.207220712559196,47.13940935056201
Watten-Éperlecques,Éperlecques,2.207772910280331,50.82578985957985
Espéraza,Espéraza,2.218243348973476,42.9357975616576
Viviez-Decazeville,Viviez,2.2184120496964885,44.555487524612005
Limoux-Flassian,Limoux,2.218549786847058,43.06845459182889
Villers-St-Sépulcre,Villers-St-Sépulcre,2.2217144164543208,49.36724740468092
Limoux,Limoux,2.2230871780167845,43.05646966541196
Dreuil-lès-Amiens,Dreuil-lès-Amiens,2.2281860209673474,49.91535661056301
Castres,Castres,2.2290097045972384,43.59797404947253
Le Rouget,St-Mamet-la-Salvetat,2.2354828493925583,44.85662032700179
Aubin,Aubin,2.238755752959924,44.527574229962866
Chambly,Chambly,2.240471809084233,49.163456804419404
Pers,Pers,2.240507473830669,44.88694360345526
Hermes-Berthecourt,Berthecourt,2.2416377230713347,49.354401347877634
Couiza-Montazels,Montazels,2.2482248910070135,42.94241062749167
Thuès-les-Bains,Nyer,2.249128954934511,42.528884513932816
Boisset,Boisset,2.2495736185343373,44.78563288456739
Alet-les-Bains,Alet-les-Bains,2.251998052127515,42.99727450737012
St-Florent-sur-Cher,St-Florent-sur-Cher,2.2527120210535942,46.99303312816468
Cernay,Ermont,2.256114102392353,48.98551638656153
Labruguière,Labruguière,2.2594093684595387,43.54246190538585
Nyers,Souanyas,2.263025997094444,42.54164503823846
La Capelle-Viescamp,Lacapelle-Viescamp,2.266204824138676,44.919983260873366
St-Omer,St-Omer,2.2677745921550416,50.75369191680522
Lavaufranche,Lavaufranche,2.2702644865895247,46.3212777096265
Cransac,Cransac,2.2723233951956545,44.52278441760414
Heilles-Mouchy,Heilles,2.2735683405063885,49.340223050519064
Lunery,Lunery,2.2751215590433262,46.93504115876785
Persan-Beaumont,Persan,2.2787859638815,49.14827872914821
Marmagne,Marmagne,2.2827946429299053,47.09990251736413
St-Roch (Somme),St-Roch (Somme),2.2829096315715454,49.893276901112316
Pomas,Pomas,2.288294870421237,43.112183525138036
Amiens,Amiens,2.3092764940777912,49.88991715802339
Joncet,Serdinya,2.311245947030553,42.561539114650905
Châteauneuf-sur-Cher,Châteauneuf-sur-Cher,2.311632018518728,46.855766563737156
Grande-Synthe,Dunkerque,2.313053426197158,51.00262499478068
Ussel,Ussel,2.3144681958749977,45.55746851190061
Tanus,Tanus,2.31594937984925,44.100633082369086
Couffoulens-Leuc,Couffoulens,2.316895616554444,43.15519722029428
Verzeille,Leuc,2.3213031895721112,43.13048958773777
Serdinya,Serdinya,2.3232219954155737,42.56698185636394
Paris-St-Lazare,Paris-St-Lazare,2.324000851373341,48.87644996063264
Mouy-Bury,Angy,2.326570137374304,49.320546353260355
St-Pol-sur-Ternoise,St-Pol-sur-Ternoise,2.335539212492169,50.379540679884514
Carcassonne,Carcassonne,2.3439133063671003,43.21774256632892
Balagny-St-Épin,Balagny-sur-Thérain,2.3442465925017246,49.294257290116214
Mauriac,Mauriac,2.3449809331332103,45.222024495056544
La Faloise,La Faloise,2.3491018596692093,49.69692845714618
Longueau,Boves,2.3520768231636504,49.864437648395864
Paris-Nord,Paris-10,2.3561600225720034,48.88164194198079
Paris-Est,Paris-Est,2.358926108129062,48.87737087354011
Cires-lès-Mello,Cires-lès-Mello,2.3602804515774047,49.2714904533875
Naucelle,Naucelle,2.363718782362404,44.18591308494914
Ailly-sur-Noye,Ailly-sur-Noye,2.364295000500494,49.754865399628535
Ytrac,Ytrac,2.3645310079953434,44.910556123694676
Dunkerque,Dunkerque,2.364678910284624,51.03464541751399
Paris-Austerlitz,Paris-13,2.367037639567501,48.84049521424753
Bigny,Vallenay,2.3682300507730027,46.801903721743315
Renescure,Renescure,2.372330558433976,50.73196874003682
Coudekerque-Branche,Coudekerque-Branche,2.3733073914261382,51.02186641517437
Paris-Gare-de-Lyon,Paris-12,2.3736703622603508,48.8442875658661
Mazamet,Aussillon,2.374807435653445,43.497891075793675
Breteuil-Embranchement,Breteuil-Embranchement,2.3829554920363942,49.628319193026
Bourges,Bourges,2.383881679944468,47.09523819730897
Paris-Bercy,Paris-12,2.385020824629119,48.840056742386324
Ria,Ria-Sirach,2.3904837645440264,42.603234052598935
Dommartin-Remiencourt,Dommartin,2.392937652308749,49.800065687906816
Vendes,Méallet,2.394947602520133,45.291655854852216
Boves,Boves,2.3976859269695647,49.84660577148545
Cramoisy,Cramoisy,2.405021268518898,49.256538965335494
St-Christophe,St-Christophe-Vallon,2.407610849837567,44.46466382350457
Arnèke,Arnèke,2.408173440631014,50.830817616700706
Ebblinghem,Ebblinghem,2.4089357687026265,50.73066603559646
Esquelbecq,Esquelbecq,2.412241153319143,50.8889196059159
Clermont-de-l'Oise,Clermont,2.417217353304942,49.38565247605914
Avrechy,Avrechy,2.418189673942193,49.445110108348274
St-Remy-en-l'Eau,St-Remy-en-l'Eau,2.4260864611910566,49.46863161641034
Bergues,Bergues,2.4264839576668744,50.967849637201105
Pernes-Camblain,Camblain-Châtelain,2.427226473297732,50.47967234743592
Prades-Molitg-les-Bains,Prades,2.4294178969726232,42.61704961880253
Thézy-Glimont,Thézy-Glimont,2.435843586481389,49.81178157822017
Aurillac,Aurillac,2.4362021114527668,44.92128287269629
Montataire,Montataire,2.4362133998987825,49.25117482036241
Gannes,Gannes,2.4368023035424056,49.57251080954575
Liancourt-Rantigny,Rantigny,2.445441543358005,49.32516189953008
Laigneville,Laigneville,2.4490811098491787,49.29323143422546
Chantilly-Gouvieux,Chantilly,2.4593921853137632,49.187740486038805
Daours,Daours,2.459621713897595,49.899552147846954
Eygurande-Merlines,Merlines,2.4607979250079883,45.64511621758998
Cassel,Bavinchove,2.461746472715491,50.787001630778505
Isbergues,Isbergues,2.463017016054724,50.613990655006845
Ham-en-Artois,Ham-en-Artois,2.4660755517324717,50.58955982596285
Creil,Creil,2.4679199621225982,49.26308100961118
Thiennes,Thiennes,2.4724641947530226,50.65191956984204
Moreuil,Moreuil,2.4754535421531783,49.777092276970436
Huriel,Huriel,2.4761890958908594,46.37144045824702
Lillers,Lillers,2.479393393503667,50.56097959829487
Calonne-Ricouart,Calonne-Ricouart,2.480203208283241,50.48212643550599
St-Germain-du-Puy,St-Germain-du-Puy,2.4844522731355565,47.09632199886518
Marquixanes,Marquixanes,2.4854201181749813,42.64272277309329
St-Amand-Montrond-Orval,Orval,2.485791477260844,46.72643246817583
Orry-la-Ville-Coye,Orry-la-Ville,2.4892453647281534,49.13934197598411
Villers-St-Paul,Villers-St-Paul,2.489632269247999,49.28257567799727
Tincques,Tincques,2.498152415554895,50.35701988330707
Corbie,Corbie,2.5015460063435744,49.91247380855365
Bort-les-Orgues,Bort-les-Orgues,2.502625665040436,45.406536819668474
Vebret,Vebret,2.5034065984888723,45.364428475039006
Vis-à-Marles,Marles-les-Mines,2.516022310523782,50.50414272658824
Rieux-Angicourt,Rieux,2.5197797107594577,49.29781369309485
Villers-Bretonneux,Villers-Bretonneux,2.521582663371829,49.862629101706226
Vinça,Vinça,2.5269390179596183,42.64773531675157
Hargicourt-Pierrepont,Hargicourt,2.5318312921201724,49.713653795717704
Heilly,Heilly,2.540395372875266,49.943828165313256
Hazebrouck,Hazebrouck,2.5416084614958443,50.72516743755126
Luc-Primaube,Luc-la-Primaube,2.5547096624834285,44.29215515184133
Savy-Berlette,Savy-Berlette,2.558040120070211,50.35388372749898
Chocques,Chocques,2.565053254533185,50.538155464010345
Méricourt-Ribemont,Méricourt-l'Abbé,2.5733859006207545,49.955790569210116
Rodez,Rodez,2.5778505635155824,44.36319038637226
Tricot,Tricot,2.5815323429524435,49.56104227001924
Marcelcave,Marcelcave,2.5821966529702265,49.85315465670388
Urçay,La Perche,2.5866295169033457,46.62997636990086
La Ville-Gozet,Montluçon,2.5917824164053336,46.34978956745922
Aubigny-en-Artois,Aubigny-en-Artois,2.5927835715160565,50.353076781808994
Montluçon-Ville,Montluçon,2.596196458997837,46.33767237806594
Buire-sur-l'Ancre,Buire-sur-l'Ancre,2.5994564439377417,49.96514173113136
Les Trillers,Vaux,2.5999072340805367,46.41455303110547
Pont-Ste-Maxence,Pont-Ste-Maxence,2.602856468438373,49.30998825061607
Magnette,Audes,2.6028988179654804,46.46417168255882
Montluçon-Rimard,Montluçon,2.611452980449509,46.33555572684902
Wacquemoulin,Wacquemoulin,2.611669730158165,49.50289085206648
Ille-sur-Têt,Ille-sur-Têt,2.6242129427394096,42.66821144518556
Strazeele,Strazeele,2.6309351128683205,50.71350179346864
Vic-sur-Cère,Vic-sur-Cère,2.6316067048492955,44.97582914922226
Frévin-Capelle,Frévin-Capelle,2.6333596947844624,50.34727761405152
Gien,Gien,2.6367573506240247,47.698878641555325
Béthune,Béthune,2.6404747500458265,50.52096325189028
Estrées-St-Denis,Estrées-St-Denis,2.6427151270625093,49.43788257800022
Albert,Albert,2.6445825768955653,50.00586126934948
Avord,Avord,2.6525505310807334,47.034813485693334
Melun,Melun,2.6533515719233587,48.52784795188418
Chevrières,Chevrières,2.68284442052235,49.33743365052904
Nemours-St-Pierre,St-Pierre-lès-Nemours,2.6855897780509967,48.267828308615826
Beuvry (Pas-de-Calais),Beuvry,2.690170519981581,50.53614520342217
Bois-le-Roi,Bois-le-Roi,2.6905517386289404,48.476397503236576
Millas,Millas,2.6930070565188045,42.68892585823008
Maroeuil,Maroeuil,2.6982295283486724,50.32245804818262
Mazingarbe,Mazingarbe,2.7005057678122157,50.46089616785513
Laqueuille,St-Julien-Puy-Lavèze,2.7048535054282605,45.64704841376804
Rémy,Remy,2.70574972068875,49.433172722384214
Rosières,Rosières-en-Santerre,2.7113283678751303,49.82273267045025
Longueil-Ste-Marie,Longueil-Ste-Marie,2.717587390886502,49.34256701029904
Fontainebleau-Avon,Avon,2.7272000671464345,48.41746394574521
Bully-Grenay,Grenay,2.7334545868975875,50.44851956824207
Briare,Briare,2.7336930262485,47.64646201241364
Bailleul,Bailleul,2.734386317470449,50.728887495386495
Miraumont,Miraumont,2.7347612238836594,50.095742944661175
Nogent-sur-Vernisson,Nogent-sur-Vernisson,2.7376388015761934,47.85281739965252
St-Féliu-d'Avall,St-Féliu-d'Avall,2.7378907320805768,42.67731335432461
Commentry,Commentry,2.740155183201145,46.29526841600904
Montargis,Montargis,2.740629799559416,48.013807518034646
Cuinchy,Cuinchy,2.7437176099048504,50.52217060298634
Le Plessis-Belleville,Le Plessis-Belleville,2.744696378860963,49.09594984152633
La Bourboule,La Bourboule,2.746227305727499,45.59064228917939
Bengy,Bengy-sur-Craon,2.7497637239985737,47.000016412496656
Le Lioran,Laveissière,2.7536767944048086,45.090485050509
Arras,Arras,2.763713951877464,50.278362955172824
Liévin,Liévin,2.7711257423592297,50.4340818055316
Boisleux,Boisleux-au-Mont,2.771761055202263,50.21018641382518
Jaux,Jaux,2.7773176973123457,49.38681747171979
Achiet,Achiet-le-Grand,2.7806221023317605,50.13214093061863
Steenwerck,Bailleul,2.7865608059746116,50.7130655344277
Le Soler,Le Soler,2.787602438694244,42.67807997538935
Courcelles-le-Comte,Courcelles-le-Comte,2.7880395552663386,50.16926361276849
Loos-en-Gohelle,Lens,2.792160590965308,50.437819114223956
Nanteuil-le-Haudouin,Nanteuil-le-Haudouin,2.793984979261509,49.142367029219045
Champagne-sur-Seine,Champagne-sur-Seine,2.799388254139055,48.406631413045
St-Mammès,St-Mammès,2.8145553633968765,48.38159397621057
Laissac,Laissac,2.8223118638801497,44.3750538540899
Nérondes,Nérondes,2.822584798594397,46.99953593667296
Vimy,Vimy,2.822992264507032,50.37321128408286
Compiègne,Margny-lès-Compiègne,2.8238227825394313,49.422366072064975
Lens,Lens,2.8272185912003565,50.426978067928964
La Miouze-Rochefort,Gelles,2.8277131857843765,45.763669080594866
Nieppe,Nieppe,2.828925131352781,50.696711008422795
Farbus,Farbus,2.831068444424471,50.3577483374866
Avion,Avion,2.8334821352371202,50.40641774322605
Les Ancizes-St-Georges,Les Ancizes-Comps,2.834827212339965,45.93132255784207
St-Éloy,St-Éloy-les-Mines,2.8350307115898485,46.169785752753754
Salomé,Salomé,2.8358914337348207,50.54133466245365
Bailleul-Sir-Berthoult,Bailleul-Sir-Berthoult,2.8408393076186123,50.33448426394891
Sallaumines,Sallaumines,2.8533133644631348,50.41757686621085
Longueil-Annel,Longueil-Annel,2.8630907617587185,49.46699872833921
Pont-de-Sallaumines,Sallaumines,2.8641770381665013,50.41574309668517
Rivesaltes,Rivesaltes,2.866137255195245,42.76994582040252
Marquillies,Marquillies,2.866180949579939,50.547708306792146
Murat,Murat,2.8696323624967026,45.10905586454466
Armentières,Armentières,2.8758261037678063,50.68067236154211
Pont-à-Vendin,Pont-à-Vendin,2.878316010976143,50.481015956726296
Perpignan,Perpignan,2.8793504505816823,42.696215261124074
Tracy-Sancerre,Tracy-sur-Loire,2.880650704295121,47.33755110531872
Thourotte,Thourotte,2.8818216599059543,49.47543325910284
Roeux,Roeux,2.8946630638690785,50.30353095017339
Bauvin-Provin,Provin,2.9050407560460103,50.51167305704527
Nesle,Nesle,2.9090036831323527,49.764075145426595
Billy-Montigny,Billy-Montigny,2.9120278461621565,50.41528974369778
Don-Sainghin,Sainghin-en-Weppes,2.9135590579698567,50.551472314779616
Salses,Salses-le-Château,2.917412907106511,42.83556456554592
La Fontaine-Nord,Wavrin,2.9256896322369736,50.565154869764726
Ribécourt,Ribécourt-Dreslincourt,2.92742032150137,49.50611181790264
Allanche,Allanche,2.9315006538763417,45.229025336389064
Manzat,Manzat,2.9317163692623867,45.90507819056518
Montereau,Montereau,2.9348900079755933,48.38007498211493
Wavrin,Wavrin,2.9356130867826216,50.57412319182417
Biache-St-Vaast,Biache-St-Vaast,2.9409976447906283,50.316280109440925
La Guerche-sur-l'Aubois,La Guerche-sur-l'Aubois,2.945401477343863,46.94854136678318
Hénin-Beaumont,Hénin-Beaumont,2.9524694012603603,50.41689907443114
Ourscamps,Pimprez,2.9538606617886205,49.53410484180841
Santes,Santes,2.9615830494198865,50.59144997814641
Elne,Elne,2.9633236381974446,42.59738878190676
Pouilly-sur-Loire,Pouilly-sur-Loire,2.9650512115391363,47.28252848274005
St-Rome-de-Cernon,St-Rome-de-Cernon,2.9674454565148123,44.01399346929345
Ste-Anastasie,Ste-Anastasie,2.969247606825773,45.1701926081595
Neussargues,Neussargues,2.9738115935252654,45.12517303410634
Pérenchies,Pérenchies,2.9774188550793927,50.66718561640918
Vitry-en-Artois,Vitry-en-Artois,2.9806081512195863,50.32717009237725
St-Georges-de-Luzençon,St-Georges-de-Luzençon,2.9835202397494847,44.06605358130905
Louroux-de-Bouble,Louroux-de-Bouble,2.9848861630415016,46.22408083086928
Haubourdin,Haubourdin,2.986130074557951,50.60534385058971
Dourges,Dourges,2.987020801896205,50.43219637796586
Deûlémont,Quesnoy-sur-Deûle,2.9939024195987654,50.716697992014026
Quesnoy-sur-Deûle,Quesnoy-sur-Deûle,2.99525859213732,50.70816916894115
Volvic,Volvic,2.9986790622956496,45.867775953385475
Mesves-Bulcy,Mesves-sur-Loire,3.00650889658292,47.24213384505958
Noyon,Noyon,3.0066702556590195,49.57700839771704
Narbonne,Narbonne,3.0086896520337114,43.19311652850358
Libercourt,Libercourt,3.008776421585093,50.47955213929722
Ste-Marguerite,Comines,3.0092101403302784,50.74083948962642
Comines-France,Comines,3.0111509534584915,50.76163800939196
Leucate-la-Franqui,Leucate,3.012754203691728,42.93265437530484
Loos-les-Lille,Loos,3.0165807795238284,50.6127400445533
Tournemire-Roquefort,Tournemire,3.0165913632374823,43.96998189614436
Phalempin,Phalempin,3.019983615088752,50.51468233950347
Argelès-sur-Mer,Argelès-sur-Mer,3.0216389611035823,42.54403628665191
Talizat,Talizat,3.0273395327692856,45.11081693097948
Ostricourt,Ostricourt,3.03046136525154,50.44641511718036
Lille CHR,Lille,3.033880299776281,50.6144906764674
St-André,St-André,3.034191483051031,50.65659450512642
Seclin,Seclin,3.034959124045116,50.54769139704771
Port-la-Nouvelle,Port-la-Nouvelle,3.038711639289964,43.01986737903757
La Marche,La Marche,3.0395231937195466,47.139767427219546
Wambrechies,Wambrechies,3.0401065351596737,50.681308286743814
Corbehem,Corbehem,3.040504265536794,50.34299930559739
Durtol-Nohanent,Durtol,3.0488184199995327,45.79465429106325
Marquette,Marquette-lez-Lille,3.05084776305226,50.672471437793725
Coursan,Coursan,3.0512802959041077,43.23406184095437
Wattignies-Templemars,Templemars,3.05128082837111,50.57846386415999
Tronsanges,Tronsanges,3.0539826089531905,47.11312698272247
Sévérac-le-Château,Sévérac-le-Château,3.0562338337048436,44.32588340399582
Leforest,Leforest,3.0600518730618433,50.42729369814148
La Madeleine,La Madeleine,3.0613333075975864,50.660646535544785
Royat-Chamalières,Chamalières,3.061641533997026,45.76773767177134
Andelat,Andelat,3.064172561279489,45.0511198296756
Campagnac-St-Geniez,Campagnac,3.0662303082339664,44.422000091177814
Bellenaves,Bellenaves,3.0666148874617902,46.1993421123937
Lille-Flandres,Lille-Flandres,3.0704234881058343,50.63626693756942
Villeneuve-la-Guyard,Villeneuve-la-Guyard,3.0704528728542555,48.34298861849005
Ham,Muille-Villette,3.0709571190745883,49.73954337157029
Saincaize,Saincaize-Meauce,3.071469671641923,46.932146300730274
Millau,Millau,3.0743766797939096,44.102428225009724
Lille-Porte-de-Douai,Lille,3.075284054981672,50.612076754918725
Lille-Europe,Lille,3.075358680700009,50.63937158035179
Ronchin,Ronchin,3.0775974986356838,50.603869361722545
Collioure,Collioure,3.0782027927295137,42.52676701474552
Pont-de-la-Deûle,Flers-en-Escrebieux,3.0849469193237007,50.397689032910435
Garchizy,Garchizy,3.0860031798098038,47.04298176279929
Fourchambault,Fourchambault,3.0873542907277867,47.01894369811664
Douai,Douai,3.0904309147700624,50.37158212907979
Clermont-La Rotonde,Clermont-Ferrand,3.090602610395683,45.76791961678115
Villers-Cotterêts,Villers-Cotterêts,3.093814284708808,49.249927496391535
Pougues-les-Eaux,Pougues-les-Eaux,3.0939351986179413,47.0767838687115
Mont-de-Terre,Lille,3.0968428707713778,50.617474762472156
Clermont-Ferrand,Clermont-Ferrand,3.097886622506008,45.77581346066248
Lezennes,Lille,3.0985124922288616,50.62039250895139
St-Flour-Chaudes-Aigues,St-Flour,3.1061434781414623,45.03497152028242
Montpaon,Fondamente,3.1096949182999087,43.8684446420104
St-Pierre-le-Moûtier,St-Pierre-le-Moûtier,3.1114420567115832,46.79333350532143
Sin-le-Noble,Sin-le-Noble,3.1126100473586527,50.3565404644949
Hellemmes,Lille,3.116260107935155,50.62287383634239
Lesquin,Lesquin,3.1187559292747866,50.5899984919224
Arleux,Arleux,3.1208351218634838,50.286342873500935
Riom-Châtel-Guyon,Riom,3.120954983054932,45.88979622425908
Appilly,Appilly,3.1209751774163426,49.580604880191174
Cantin,Cantin,3.1217526825201145,50.3124055471456
Banyuls-sur-Mer,Banyuls-sur-Mer,3.1248658142098367,42.48289092162868
Pont-de-Bois,Villeneuve-d'Ascq,3.128349868303076,50.62403941492121
Champigny-sur-Yonne,Champigny,3.1293595569343085,48.324420171004704
Clermont-La Pardieu,Clermont-Ferrand,3.1342956252019447,45.76691187923342
Vauzelles,Varennes-Vauzelles,3.1343679466456766,47.001376533472175
Croix-Wasquehal,Wasquehal,3.138716972159806,50.679144568089065
St-Bonnet-de-Rochefort,St-Bonnet-de-Rochefort,3.139628459846439,46.14842426605453
Gerzat,Gerzat,3.143096869688812,45.83331288297224
Brunémont,Brunémont,3.146083415609879,50.278140840911426
Annappes,Villeneuve-d'Ascq,3.1463510262416383,50.622876232702744
Bédarieux,Bédarieux,3.1476069552687966,43.605074083118474
Les Perrières,Varennes-Vauzelles,3.1484388596024164,47.00616929165193
Fretin,Fretin,3.148901426869477,50.56074515954315
Nevers,Nevers,3.1505156936529524,46.987320179083795
Croix-l'Allumette,Croix,3.1518666791853662,50.68726440720282
Ceilhes-Roqueredonde,Roqueredonde,3.1551634480766704,43.812139170306786
Aubigny-au-Bac,Aubigny-au-Bac,3.1582844488689865,50.268474966278646
Ennevelin,Templeuve,3.1587671044512926,50.549523320480006
Ascq,Villeneuve-d'Ascq,3.1597682269932297,50.621952758495844
Pontmort,Cellule,3.1601088219531728,45.93973074577569
Aubiat,Aubiat,3.1604232165450763,45.98387527179955
Aulnat-Aéroport,Aulnat,3.1609853630103286,45.79205565555228
Roubaix,Roubaix,3.1632695164923303,50.69597348869033
Cerbère,Cerbère,3.164658104570377,42.44222906253806
Nevers-Le Banlay,Nevers,3.1650357419057733,47.0065893582654
Sarliève-Cournon,Cournon-d'Auvergne,3.167945348365505,45.73875046844152
Tourcoing,Tourcoing,3.1683439537032565,50.71667041877196
Le Bousquet-d'Orb,Le Bousquet-d'Orb,3.1689273921376384,43.691098536008155
Chantenay-St-Imbert,Chantenay-St-Imbert,3.1720075030411223,46.728176864764464
Templeuve,Templeuve,3.1761435821473265,50.528876997015296
Les Cabrils,Roqueredonde,3.18619244268379,43.77956015882409
Montigny-en-Ostrevent,Montigny-en-Ostrevent,3.1883134137436944,50.361323615409574
Le Cendre-Orcet,Le Cendre,3.188612056172235,45.723930967515024
Flavy-le-Martel,Flavy-le-Martel,3.190748290287538,49.7187021304641
Les Martres-de-Veyre,Les Martres-de-Veyre,3.1934784674468872,45.68814655128286
Lunas,Lunas,3.1948905134212766,43.709542203879316
Banassac-La Canourgue,Banassac,3.196254083905296,44.447564287297965
Aigueperse,Aigueperse,3.1981975406302867,46.01474354858696
Pont-sur-Yonne,Pont-sur-Yonne,3.2016452015022376,48.28731576899333
Gannat,Gannat,3.204646091443704,46.1009576937537
Vic-le-Comte,Vic-le-Comte,3.206926245053712,45.66492815795635
Nomain,Nomain,3.206965313443089,50.502325929626465
Parent-Coudes-Champeix,Parent,3.2167047355740155,45.61418782407018
Béziers,Béziers,3.2193639739897613,43.33604465075626
Chauny,Chauny,3.2225475265262307,49.61049752439723
Magalas,Magalas,3.2294988099925046,43.46767292795649
Longpont,Longpont,3.2301487015702683,49.27264567435972
Baisieux,Baisieux,3.2346989722614348,50.618599004860926
Pont-du-Château,Pont-du-Château,3.2378244695508562,45.78847594749263
Villeneuve-sur-Allier,Villeneuve-sur-Allier,3.2468652736218235,46.65911911232657
Longueville,Longueville,3.248786566166764,48.51478227381856
Orchies,Orchies,3.249248747648425,50.47723062459998
Viry-Noureuil,Viry-Noureuil,3.2500903866267223,49.62730354937344
Le Monastier,Le Monastier-Pin-Moriès,3.2513172949955704,44.50637197519356
Montescourt,Montescourt-Lizerolles,3.2519369782078886,49.738090356394565
Issoire,Issoire,3.254208169172224,45.54410777430989
Imphy,Imphy,3.259411125784636,46.9323116784127
Le Breuil-sur-Couze,Le Breuil-sur-Couze,3.2621492251322013,45.4671361477178
Tournai,Tournai,3.2636104178112664,50.61743044620953
Sens,Sens,3.2662335604737343,48.20304528586768
Mennessis,Mennessis,3.2702353648023457,49.692176557029384
St-Chély-d'Apcher,St-Chély-d'Apcher,3.2707978006652723,44.801694525652024
Somain,Somain,3.272912807956583,50.35443988159287
Escaudoeuvres,Escaudoeuvres,3.276361665143942,50.19234895374144
Marvejols,Marvejols,3.281142663772214,44.54467010094681
Aumont-Aubrac,Aumont-Aubrac,3.2833565153888573,44.71819524766465
Villeneuve-sur-Yonne,Villeneuve-sur-Yonne,3.2863468935917948,48.086090907944325
Champbenoist-Poigny,Poigny,3.287148323732937,48.5454870957571
Vertaizon,Bouzel,3.288416384375965,45.78463987994334
Étigny-Véron,Étigny,3.2901012509413494,48.13852526220321
Landas,Landas,3.290156478308408,50.468752121849114
Tergnier,Tergnier,3.296029163054813,49.65702541631007
St-Quentin,St-Quentin,3.297098870120037,49.83976070939085
St-Pourçain-sur-Sioule,St-Pourçain-sur-Sioule,3.2990857409823584,46.30503520484825
St-Julien-du-Sault,St-Julien-du-Sault,3.3036705710030128,48.02784855144447
Arvant,Arvant,3.3099670856665586,45.36402910202193
Wambaix,Wambaix,3.3112306133779894,50.13385784297832
Béard,Béard,3.3182629917266566,46.86461079453238
Iwuy,Iwuy,3.3304200940186752,50.22626785921278
Bouchain,Neuville-sur-Escaut,3.3318976022021265,50.2780369036559
Cattenières,Cattenières,3.3335152557513674,50.12835052655963
Moulins-sur-Allier,Moulins-sur-Allier,3.337996194581846,46.55659542901106
Soissons,Soissons,3.338363138513456,49.3690000790976
Lourches,Roeulx,3.3434779549010347,50.31061442370389
Chanac,Esclanèdes,3.345563721851413,44.4740883799819
Rosult,Rosult,3.348301824455115,50.4564790644973
Bessay,Bessay-sur-Allier,3.360749085595612,46.44361407879029
La Fère,La Fère,3.3698844734473314,49.657829034213655
Brioude,Brioude,3.3787359699425124,45.30060705009154
Lezoux,Lezoux,3.386064085489927,45.82111298761336
Denain,Denain,3.3887409472857324,50.334658205076465
Joigny,Joigny,3.391311397077373,47.97340415023695
Wallers,Wallers,3.3936408340611224,50.38458898670618
Varennes-sur-Allier,Varennes-sur-Allier,3.3940609328435207,46.31531678890194
Caudry,Caudry,3.4090863230274038,50.111378251468494
Château-Thierry,Château-Thierry,3.4097383228215525,49.03782614971173
Barjac,Barjac,3.4107936169964024,44.49938407314612
St-Amand-les-Eaux,St-Amand-les-Eaux,3.4124954310960733,50.44598752949575
Vias,Vias,3.4255347555329068,43.316072850226014
Vichy,Vichy,3.429444756018405,46.13039995182778
St-Germain-des-Fossés,St-Germain-des-Fossés,3.430507768733192,46.209011690961006
Fresnoy-le-Grand,Fresnoy-le-Grand,3.432591812348431,49.95023606754016
Versigny,Versigny,3.433566294954427,49.6573460638069
Busigny,Busigny,3.4426533800548675,50.035228548599214
Bohain,Bohain-en-Vermandois,3.4427093552454284,49.98849723417582
Anizy-Pinon,Anizy-Pinon,3.4438142345364775,49.493143738864525
Bertry,Bertry,3.4490246701821023,50.091126642705575
Maurois,Honnechy,3.456325308770227,50.06737244204346
Balsièges-Bourg,Balsièges,3.456601695538956,44.48206935118343
Prouvy-Thiant,Prouvy,3.459326618700148,50.316254282831174
Agde,Agde,3.4667313688005525,43.317493383126994
Decize,Decize,3.4674985438989685,46.83744313029899
Raismes,Raismes,3.478796397466136,50.39002283195671
Trith-St-Léger,Trith-St-Léger,3.4892084435963726,50.33168205864179
Pont-de-Dore,Peschadoires,3.4902087796231926,45.842818409111786
Langeac,Langeac,3.490565120059909,45.101078256955795
Montbeugny,Montbeugny,3.4917613301829653,46.532917413460204
Nogent-sur-Seine,Nogent-sur-Seine,3.4938339074654903,48.49794760260068
St-Georges-d'Aurac,Mazeyrat-d'Allier,3.494734866149104,45.16047357280196
Paulhaguet,Salzuit,3.500321277993668,45.21040294671146
Mende,Mende,3.501918908967537,44.52241170756253
Fère-en-Tardenois,Fère-en-Tardenois,3.5039650300865546,49.208718963638496
Beuvrages,Beuvrages,3.505607038499412,50.39101629880019
Laroche-Migennes,Migennes,3.5114536684444952,47.961014623196476
Valenciennes,Valenciennes,3.5156332729544904,50.362305045520365
Crépy-Couvron,Crépy,3.516648700534048,49.623481519737396
Clamecy,Clamecy,3.5185679415179405,47.464989876184035
Marseillan-Plage,Marseillan,3.5359428459905256,43.318372868569796
Le Cateau,Le Cateau-Cambrésis,3.5404120906560985,50.09126147749307
Le Puy-Lafayette,St-Georges-d'Aurac,3.541824094845805,45.153951088631366
Thiers,Thiers,3.543281416041616,45.861204982074355
Courpière,Courpière,3.5444438377092684,45.75775636511264
Coulanges-sur-Yonne,Crain,3.5472861617821203,47.527017815561116
Chemilly-Appoigny,Chemilly-sur-Yonne,3.5543465050515235,47.89734298068346
Marnay-sur-Seine,Marnay-sur-Seine,3.5615521445298683,48.509463518938034
Mont-Notre-Dame,Mont-Notre-Dame,3.5767254980891483,49.29682385072547
Monéteau-Gurgy,Monéteau,3.5800312727501535,47.8507529836946
Auxerre-St-Gervais,Auxerre,3.5854645077720173,47.79761112367383
Giroux,Olliergues,3.5906136254592327,45.69402405123064
Champs-St-Bris,Champs-sur-Yonne,3.603700203046033,47.7386232916123
Lachaud-Curmilhac,Vissac-Auteyrac,3.610659464854105,45.12328317962574
Laon,Laon,3.613145067422245,49.57123119476843
Bazoches,Bazoches,3.613704348861293,49.30537013685446
Flez-Cuzy-Tannay,Tannay,3.615134800485459,47.363016895951745
Bagnols-Chadenet,Chadenet,3.628354122404666,44.52861389556279
Vincelles,Vincelles,3.628719700528745,47.70407821467234
Châtel-Censoir,Châtel-Censoir,3.635139936305949,47.53777617709835
Olliergues,St-Gervais-sous-Meymont,3.6368197752882527,45.67289197036282
Dormans,Dormans,3.641732540154304,49.07912421461366
Cercy-la-Tour,Cercy-la-Tour,3.644989401494037,46.8577067223921
Monistrol-d'Allier,Monistrol-d'Allier,3.6498601793895418,44.96959700426064
Le Quesnoy (Nord),Le Quesnoy,3.650296076989082,50.24878193331355
Barenton-Bugny,Barenton-Bugny,3.6559879746756803,49.63058522655167
Allenc,Allenc,3.664130358302335,44.541521031161814
Verneuil-sur-Serre,Verneuil-sur-Serre,3.6662584288266857,49.64702811624392
Pont-de-David,Bertignat,3.6696996702782,45.64436817604518
Alleyras,Alleyras,3.67331356088539,44.91879988332404
Mailly-la-Ville,Mailly-la-Ville,3.6749111104152536,47.60392589664921
Dompierre-Sept-Fons,Dompierre-sur-Besbre,3.675343009355433,46.52641660175006
Corbigny,Corbigny,3.6771847379264915,47.25489222994257
Cravant-Bazarnes,Cravant-Bazarnes,3.679757820934492,47.6735074630003
Landrecies,Landrecies,3.6818685986501922,50.128168519781205
Fismes,Fismes,3.6825129600053934,49.31092384327647
Dercy-Froidmont,Dercy,3.6920408688492574,49.70263602649007
Sète,Sète,3.696608504888423,43.412798600273256
La Chaise-Dieu,La Chaise-Dieu,3.697338233764501,45.316055805352704
Vertolaye,Vertolaye,3.705423472919101,45.64304582287215
Allègre,Allègre,3.7084611194886814,45.19577883730658
Monlet,Monlet,3.7090940743074547,45.21944356156255
Voyenne,Voyenne,3.7206639483795456,49.72623069199656
Sembadel,Sembadel,3.7218114461343967,45.276599571902466
Marsac-en-Livradois,Marsac-en-Livradois,3.7248721770185766,45.48201019661197
Romilly-sur-Seine,Romilly-sur-Seine,3.728582680109785,48.514016572128476
St-Florentin-Vergigny,Vergigny,3.7299292520261775,47.98020249062703
Vermenton,Vermenton,3.7319792484292056,47.66055249071992
Magneux-Courlandon,Magneux,3.733829606171373,49.30993983854904
Darsac,Vernassal,3.73453776304568,45.14280899593873
Ambert,Ambert,3.7347927941965904,45.549164311178245
Ceaux-d'Allègre,Céaux-d'Allègre,3.7361569611808254,45.17309926190652
St-Florentin-Ville,St-Florentin,3.7402697148047994,48.00426051405738
Chapeauroux,St-Bonnet-de-Montauroux,3.7420135801955374,44.8378407627591
Hachette,Locquignol,3.743209619904144,50.158200017489754
Belvezet,Belvezet,3.7518074733397024,44.561755245105154
Frontignan,Frontignan,3.75895970261544,43.44488338982112
Noirétable,Noirétable,3.7611913421120975,45.81601494704283
Breuil-Romain,Breuil,3.7668780249942966,49.30838139470338
Arcy-sur-Cure,Arcy-sur-Cure,3.7669420325792182,47.60082326241804
Marle-sur-Serre,Marle,3.769775758735289,49.74709563824541
Coucy-lès-Eppes,Coucy-lès-Eppes,3.774746449146322,49.555959620211574
Gilly-sur-Loire,Gilly-sur-Loire,3.782078688484614,46.53725024815309
Sermizelles-Vézelay,Givry,3.792894581811644,47.52886695431305
Borne,Borne,3.795225739305719,45.10051669269214
Vic-Mireval,Vic-la-Gardiole,3.799519790518108,43.500776527296345
Berlaimont,Berlaimont,3.8089095450621655,50.19821011578526
Jonchery-sur-Vesle,Jonchery-sur-Vesle,3.819584568195741,49.290000369501826
Leval,Leval,3.83628711421893,50.18474158839379
Chasseradès,Chasseradès,3.8398176313409085,44.553902953903226
Aulnoye-Aymeries,Aulnoye-Aymeries,3.8436836302101116,50.19717322440108
Langogne,Langogne,3.857480960432029,44.73268355112731
St-Erme,St-Erme-Outre-et-Ramecourt,3.8576210423604,49.526755562354644
Dompierre,Dompierre-sur-Helpe,3.871447513718091,50.14620866159239
St-Agnan,St-Agnan,3.8792078649735986,46.50146020099202
Luc,Luc,3.891541176455509,44.65404185764658
Muizon,Muizon,3.891856462971212,49.278213876614025
Vervins,Vervins,3.8933793991949672,49.83006081663903
Le Puy-en-Velay,Le Puy-en-Velay,3.894211678987385,45.04371964956139
Vallant-St-Georges,Vallant-St-Georges,3.899437846010749,48.46606886875622
Lavoûte-sur-Loire,Lavoûte-sur-Loire,3.90675398323392,45.121562062125776
Amifontaine,Amifontaine,3.9106821693278633,49.48469662676303
Vorey,Vorey,3.910845069786845,45.1839171747353
Avallon,Avallon,3.912692787059527,47.495835313066046
St-Hilaire,St-Hilaire-sur-Helpe,3.9132898225079376,50.13217595242648
Hautmont,Hautmont,3.915571616258313,50.253974336162884
St-Vincent-le-Château,St-Vincent,3.9187876541130144,45.1500603674364
Ervy-le-Châtel,Ervy-le-Châtel,3.9218655739284745,48.04469103445828
Villefort,Villefort,3.924035262276116,44.43946205033167
St-Mesmin,St-Mesmin,3.9255198606448576,48.43866656879721
Avesnes,Avesnes-sur-Helpe,3.933691932159472,50.126510256624066
Sous-le-Bois,Maubeuge,3.9399851814810174,50.26557144191194
Avesnelles,Avesnelles,3.9461048219516064,50.11977556237729
Savières,Savières,3.950898252772478,48.404308126778496
Génolhac,Génolhac,3.9516535114994302,44.347276873392474
Louvroil,Louvroil,3.9529365809762727,50.2680647239787
Epernay,Épernay,3.960087913233235,49.04641786994186
Guignicourt,Guignicourt,3.9613357315910362,49.43440304172821
St-Aunès,St-Aunès,3.963258236281297,43.63539371862417
Maubeuge,Maubeuge,3.9684534427957816,50.27249283717978
Luzy,Luzy,3.969128076226552,46.7943472528084
Ste-Cécile-d'Andorge,Ste-Cécile-d'Andorge,3.9757422581013895,44.25508763835386
Chamborigaud,Chamborigaud,3.9794298699195183,44.30032167784234
La Bouteille,La Bouteille,3.982780234602766,49.86013200625364
Digoin,Digoin,3.9880086206487215,46.485251788202106
Loivre,Loivre,3.990653406713556,49.34590273568811
Monswiller,Fère-Champenoise,3.991461119852264,48.76468009949106
Champagne-Ardenne-TGV,Bezannes,3.9936559956053936,49.21455924201553
St-Lyé,St-Lyé,3.999487921837176,48.35889522819482
Sains-du-Nord,Sains-du-Nord,4.0015776644068834,50.08866973398011
Ay,Ay,4.001620866305724,49.04868676712236
Boën,Boën,4.004874632380937,45.741240814142635
Baillargues,Baillargues,4.006768360783083,43.65313882274185
La Levade,La Grand-Combe,4.010335710716527,44.22854435129834
Les Bons-Pères,Rousies,4.0108617439104055,50.279801417371175
Courcy-Brimont,Courcy,4.014231404138552,49.32935496255477
Reims-Maison-Blanche,Reims,4.022706051740367,49.23341625486098
Germaine,Germaine,4.022858782942288,49.12805579944982
Reims,Reims,4.023685509962517,49.258671188152796
Origny-en-Thiérache,Origny-en-Thiérache,4.024297576660079,49.89068926048639
Jeugny,Jeugny,4.0359647853848895,48.12789640354705
Retournac,Retournac,4.037084538218064,45.20129888916648
Trois-Puits,Trois-Puits,4.0384720783713925,49.20711771012249
Montbré,Montbré,4.0389045709289775,49.193647974678186
Rilly-la-Montagne,Rilly-la-Montagne,4.040905519057281,49.16647916815051
Avenay,Avenay-Val-d'Or,4.0435162820162684,49.0646923037864
Recquignies,Recquignies,4.0444145927958415,50.28403349483933
Fourmies,Fourmies,4.05268429637167,50.02006119868154
Valergues-Lansargues,Valergues,4.060340238642484,43.67270834341559
Roanne,Roanne,4.0630675362708395,46.03936961727753
Troyes,Troyes,4.064835207179079,48.29588003294944
Hirson,Hirson,4.076898263536917,49.90929918589387
Montbrison,Montbrison,4.0785429432756315,45.60453350000633
Alès,Alès,4.081017235029589,44.13162129695281
Hirson-Écoles,Hirson,4.086000106405374,49.92932208305819
Le Coteau,Le Coteau,4.0863185555316095,46.023554212978496
Jeumont,Jeumont,4.086856778953874,50.29631909227327
Anor,Anor,4.0928903535258945,49.98498862662841
Lunel-Viel,Lunel-Viel,4.09361390027053,43.68112696285351
Paray-le-Monial,Paray-le-Monial,4.113506679602257,46.4470105645659
St-Romain-le-Puy,St-Romain-le-Puy,4.120823009766296,45.554415326144856
St-Jodard,St-Jodard,4.1252268499108125,45.88584160067726
Lunel,Lunel,4.13115223064578,43.679585788010826
Pont-de-Lignon,Beauzac,4.137456811955176,45.25981324098422
Bas-Monistrol,Bas-en-Basset,4.139526499087438,45.29721132548249
Le Grau-du-Roi,Le Grau-du-Roi,4.140573057483806,43.537069830533724
St-Pal-de-Mons,Monistrol-sur-Loire,4.143856596583853,45.30799104565154
Sillery,Sillery,4.144199780709626,49.20332579990567
St-Didier-en-Velay,Monistrol-sur-Loire,4.151568160570447,45.314807203234345
St-Romain-Lachalm,Monistrol-sur-Loire,4.151568160570447,45.314807203234345
Gallargues,Gallargues-le-Montueux,4.1712643439480885,43.716049152717005
Bazancourt,Bazancourt,4.1744956141153935,49.36137467424595
Sury-le-Comtal,Sury-le-Comtal,4.182500701650796,45.52905512274703
Étang,Étang-sur-Arroux,4.183713530019221,46.868012419549025
Prunay,Prunay,4.183760460727639,49.19871245335
Balbigny,Balbigny,4.187530677533177,45.81778663766586
Boucoiran,Boucoiran-et-Nozières,4.18754351808406,43.99273014025836
Aigues-Mortes,Aigues-Mortes,4.191091756201102,43.57088039271484
St-Laurent-d'Aigouze,St-Laurent-d'Aigouze,4.193010328022384,43.63914459623065
Montaulin,Montaulin,4.1943314544540025,48.25917240034617
Aurec,Aurec-sur-Loire,4.198273773642066,45.37091345410092
Fons-St-Mamert,Fons,4.20674139775482,43.9072610264125
Brion-Laizy,Laizy,4.206993420666482,46.9084895759431
Nozières-Brignon,Boucoiran-et-Nozières,4.207422079941034,43.9758698457229
Nuits-sous-Ravières,Nuits,4.2112594480209395,47.72978455026175
St-Geniès-de-Malgoirès,St-Geniès-de-Malgoirès,4.214922021943823,43.95011608656978
Régny,Régny,4.215337566332648,45.98762679101132
Bonson,Bonson,4.21636058621463,45.52231840838178
Vergèze-Codognan,Vergèze,4.219113329716423,43.739779462874615
Val-de-Vesle,Val-de-Vesle,4.222153557570627,49.17809390171898
Feurs,Feurs,4.230653566369019,45.74406891460365
Le Cailar,Le Cailar,4.234917595726394,43.68327665310768
Génelard,Génelard,4.238147018273335,46.58118078240515
Mesvres,Mesvres,4.244709727961872,46.86293850590603
Montrond-les-Bains,Montrond-les-Bains,4.246780889554222,45.64417965687003
Andrézieux,Andrézieux-Bouthéon,4.25525189630413,45.52162717496561
Sept-Saulx,Sept-Saulx,4.256996396193811,49.15113148626446
St-Didier-La Séauve,La Séauve-sur-Semène,4.259204262573693,45.29633322589793
Uchaud,Uchaud,4.267364832101653,43.75797924386263
Vauvert,Vauvert,4.270078432371114,43.69506047010821
Bouthéon,Andrézieux-Bouthéon,4.277763826148874,45.52463968497984
St-Victor-Thizy,St-Victor-sur-Rhins,4.281196242917453,46.00228968421425
Firminy,Firminy,4.286141834084133,45.391743119984376
Dyo,Dyo,4.289364053851899,46.35848050259172
Autun,Autun,4.292902252342824,46.954956650693816
Broye,St-Symphorien-de-Marmagne,4.295032727384662,46.86227823083896
La Clayette-Baudemont,Baudemont,4.298400545470131,46.28819138501796
Ciry-le-Noble,Ciry-le-Noble,4.299610871448938,46.60406397656996
Milhaud,Milhaud,4.303360621176713,43.788620016227284
La Fouillouse,La Fouillouse,4.317339239343409,45.497473320234214
Mourmelon-le-Petit,Mourmelon-le-Petit,4.317833475946308,49.13130217130067
Le Chambon-Feugerolles,Le Chambon-Feugerolles,4.3220611312508685,45.39467108364799
Amplepuis,Amplepuis,4.327214356097621,45.97049539768586
St-Césaire,Nîmes,4.327963542425942,43.81354643785989
Galuzot,St-Vallier,4.330078799105821,46.6420675850791
Montbard,Montbard,4.3352348436086565,47.61865027866219
Générac,Générac,4.3434184176503265,43.732395019992246
Chauffailles,Chauffailles,4.3456466775634315,46.20742149477374
Châlons-en-Champagne,Châlons-en-Champagne,4.34747897665658,48.95682346508974
Bouy,Bouy,4.353159140006062,49.091209962274505
La Ricamarie,La Ricamarie,4.357680089145885,45.40319775260078
Montceau-les-Mines,Montceau-les-Mines,4.361105316071837,46.67051156636181
Nîmes,Nîmes,4.366218272451483,43.83252873429654
Rethel,Rethel,4.370261280952036,49.504633793931674
St-Étienne-Le Clapier,St-Étienne,4.378403509631388,45.43669852056117
St-Hilaire-au-Temple,St-Hilaire-au-Temple,4.379296411934363,49.05590281849361
St-Étienne-La Terrasse,St-Étienne,4.379503128451234,45.46473450079108
St-Étienne-Carnot,St-Étienne,4.3847753979274735,45.446730990708296
Blanzy,Blanzy,4.3912616011421175,46.69399291424549
St-Étienne-Bellevue,St-Étienne,4.3925836380960135,45.41686015623034
St-Étienne-Châteaucreux,St-Étienne,4.399559786053118,45.4435644594045
Le Creusot,Le Creusot,4.429992290925033,46.80844586039035
Tarare,Tarare,4.439388291600868,45.88966973976324
Poule,Poule-les-Écharmeaux,4.459614979334684,46.13968056631607
Les Laumes-Alésia,Venarey-les-Laumes,4.461798665909546,47.54338010556078
Amagne-Lucquy,Amagne-Lucquy,4.463417712599302,49.52262777832305
Vendeuvre (Aube),Vendeuvre-sur-Barse,4.467286268300827,48.240280704054356
Montchanin,Montchanin,4.473041415305401,46.76214100547226
Manduel-Redessan,Manduel,4.4793515225987885,43.82634078935127
St-Nizier-d'Azergues,St-Nizier-d'Azergues,4.4811198469054405,46.08690691711855
Lamure-sur-Azergues,Lamure-sur-Azergues,4.492313405103372,46.06105246915765
Pontcharra-St-Forgeux,Pontcharra-sur-Turdine,4.492874138246988,45.871505178128956
Chamelet,Chamelet,4.507016244543598,45.98167025804158
St-Chamond,St-Chamond,4.517096513613868,45.47242263210802
Pringy,Pringy,4.522324795105669,48.78172870950157
Ternand,Ternand,4.533723990123461,45.944929095752286
St-Romain-de-Popey,St-Romain-de-Popey,4.542261792981239,45.861718403451064
Bois-d'Oingt-Légny,Légny,4.575519138079503,45.90651581214318
Vitry-le-François,Vitry-le-François,4.586179381453853,48.717634787177275
Le Breuil (Rhône),Le Breuil,4.591557620656351,45.896099229764225
Sain-Bel,Sain-Bel,4.601696786719716,45.81131820303853
Rive-de-Gier,Rive-de-Gier,4.606590608322465,45.524410804421215
L'Arbresle,L'Arbresle,4.618955339059947,45.83345242735721
Chessy,Chessy,4.6224918425323915,45.88543647198957
Thenissey,Thenissey,4.622913908240606,47.494608573035535
St-Léger-sur-Dheune,St-Léger-sur-Dheune,4.628441766449198,46.848425175627916
Arles,Arles,4.632541582258205,43.68370505409544
Poix-Terron,Poix-Terron,4.636807636125961,49.6505864846501
Revin,Revin,4.642915600499463,49.93940438289337
Châtillon-d'Azergues,Châtillon,4.645186321129995,45.87517293010993
Beaucaire,Beaucaire,4.647372766110843,43.802158264377375
Lentilly,Lentilly,4.667205453902536,45.82180604383181
Verrey,Verrey-sous-Salmaise,4.66969571655487,47.43893360241921
Anchamps,Anchamps,4.66991430394058,49.930765149272354
Cheilly-lès-Maranges,Cheilly-lès-Maranges,4.675645790792915,46.89258444391283
Lentilly-Charpenay,Lentilly,4.682268018683733,45.8165281223888
Lozanne,Lozanne,4.682629820999579,45.85405491937336
Laifour,Laifour,4.692175188420022,49.91097533133588
Fumay,Fumay,4.692741480890239,49.98675789635715
Santenay-les-Bains,Santenay,4.701780086185654,46.910734332268326
Pierrelatte,Pierrelatte,4.703944257544838,44.37464620538406
Donzère,Donzère,4.704596402183965,44.44315434179785
Haybes,Haybes,4.7055749143627335,50.01196940594157
Bar-sur-Aube,Bar-sur-Aube,4.706902327661998,48.23863618688179
Deville,Deville,4.707017563077379,49.8802009754296
Bollène-la-Croisière,Bollène,4.7081481847934565,44.271542331649364
La Tour-de-Salvagny,La Tour-de-Salvagny,4.71678427784942,45.79970236776524
Civrieux-d'Azergues,Civrieux-d'Azergues,4.718426419765193,45.85913270180337
St-Georges-de-Reneins,St-Georges-de-Reneins,4.7187504006516345,46.06206242033645
Anse,Anse,4.7198860032403225,45.939355674976504
Villefranche-sur-Saône,Villefranche-sur-Saône,4.721077121771564,45.984560816448536
Vireux-Molhain,Vireux-Molhain,4.7231514065253934,50.08345764970998
Charleville-Mézières,Charleville-Mézières,4.725202519713612,49.76758462699033
Chazay-Marcilly,Marcilly-d'Azergues,4.725381631650007,45.8731048100817
Fépin,Fépin,4.7258122007214665,50.02375575619918
Belleville-sur-Saône,Belleville,4.728863851523365,46.11191109736011
Casino-Lacroix-Laval,La Tour-de-Salvagny,4.72974509462416,45.78848922891444
Mohon,Charleville-Mézières,4.732672601969852,49.7530680176716
Dommartin-Lissieu,Dommartin,4.734074413989939,45.8399993675869
Charbonnières-les-Bains,Charbonnières-les-Bains,4.7357196106081645,45.782298760340325
Monthermé,Bogny-sur-Meuse,4.7401146171749176,49.86609628373608
Blaisy-Bas,Blaisy-Bas,4.741442157912561,47.37325834823592
Romanèche-Thorins,Romanèche-Thorins,4.742187589001408,46.17627396365501
Nouzonville,Nouzonville,4.742258644137013,49.81253486383028
Montélimar,Montélimar,4.744565283791178,44.55896224752883
Le Méridien,Charbonnières-les-Bains,4.748267623974998,45.768913339007796
Chagny,Chagny,4.748453193367108,46.90748655578193
Le Pouzin,Le Pouzin,4.750066436271399,44.75186456111632
Blesme-Haussignemont,Haussignémont,4.7529054773287935,48.72150465698611
Les Flachères,Charbonnières-les-Bains,4.754091309319199,45.77727373763648
Tassin,Tassin-la-Demi-Lune,4.758652724434787,45.7617575773923
Dardilly-les-Mouilles,Écully,4.760077445397871,45.796475563648244
Rully,Rully,4.761035836913568,46.880295225722605
Dardilly-le-Jubin,Dardilly,4.761303255176434,45.81524855211636
Aubrives,Aubrives,4.761766683434948,50.10432227905832
Bogny-sur-Meuse,Bogny-sur-Meuse,4.762709444152459,49.85883392989218
Brignais,Brignais,4.763849125047893,45.67371529480868
Chaponost,Chaponost,4.764649154604175,45.69884679639
Givors-Ville,Givors,4.7659268377736845,45.5851191154411
Joigny-sur-Meuse,Joigny-sur-Meuse,4.767798406916733,49.83304792527545
St-Clair-les-Roches,St-Clair-du-Rhône,4.769865613059206,45.45025702124897
Francheville,Francheville,4.770411272700129,45.731708281780385
Givors-Canal,Givors-Canal,4.77157950579318,45.59559837292835
Pontanevaux,La Chapelle-de-Guinchay,4.772710941085324,46.21307265675726
Fontaines-Mercurey,Fontaines,4.7752353795458085,46.85120280986514
Quincieux,Quincieux,4.778864810556997,45.90662720302736
Écully-la-Demi-Lune,Tassin-la-Demi-Lune,4.779149852010691,45.765804076277284
Crêches-sur-Saône,Crêches-sur-Saône,4.7841929104962855,46.24614606788354
Avignon-TGV,Avignon,4.7859886804793135,43.92185220386844
Nouvion-sur-Meuse,Nouvion-sur-Meuse,4.79501899951438,49.69710359367768
Chasse-sur-Rhône,Chasse-sur-Rhône,4.795063408181972,45.58268121725156
Le Péage-de-Roussillon,Le Péage-de-Roussillon,4.795278430026544,45.371622599885704
Meursault,Meursault,4.795351885797312,46.96886501405695
