Name,Commune,Longitude,Latitude
Brest,Brest,-4.479243011743669,48.387929795241206
Le Rody,Guipavas,-4.422451159163918,48.39877838288628
Kerhuon,Le Relecq-Kerhuon,-4.3882326318055895,48.409605201316694
La Forest,La Forest-Landerneau,-4.3071911864121,48.42635046201861
Dirinon Loperhet,Loperhet,-4.285642326605409,48.392685659282996
Landerneau,Landerneau,-4.256576427625531,48.45374715117324
Daoulas,Irvillac,-4.239049117310722,48.359310817462855
La Roche,La Roche-Maurice,-4.2052246276462135,48.47408756928626
Hanvec,Hanvec,-4.135378529858757,48.34143536247355
Quimerch,Pont-de-Buis-lès-Quimerch,-4.095883269981933,48.282353807370775
Châteaulin,Châteaulin,-4.094446373150009,48.201428182836906
Quimper,Quimper,-4.092523298697385,47.994868371412096
Pont-de-Buis Lès Quimerc'h,St-Ségal,-4.086206420569091,48.25436265951535
Quéménéven,Quéménéven,-4.085804996612713,48.11563521669611
Landivisiau,Landivisiau,-4.082927185842419,48.49577732549493
Guimiliau,Guimiliau,-3.9989450773651343,48.485226749815205
St-Pol-de-Léon,St-Pol-de-Léon,-3.987357201391775,48.676823361391584
Roscoff,Roscoff,-3.9828358132084496,48.72064886373147
Plouénan,Plouénan,-3.970007778373813,48.64060862226864
St-Thégonnec,St-Thégonnec,-3.9478073806075455,48.494507074243906
St-Yvy,St-Yvi,-3.9266072727483903,47.97533304717232
Henvic,Henvic,-3.926429040876095,48.6236337817172
Concarneau,Concarneau,-3.920653487296092,47.87775382153119
La Boissière,Concarneau,-3.9041282446345784,47.918898962092975
Taulé-Henvic,Taulé,-3.8992629592272414,48.61678100123585
Pleyber-Christ,Pleyber-Christ,-3.883086229756259,48.50747856463624
Rosporden,Rosporden,-3.8420558407118954,47.96092767740386
Morlaix,Morlaix,-3.832477837161316,48.57798173117454
Plouigneau,Plouigneau,-3.7104825987000702,48.56458218057056
Bannalec,Bannalec,-3.7066680289723504,47.926788117965785
Mellac-Le Trévoux,Mellac,-3.6068489092071694,47.89587085871132
Plounérin,Plounérin,-3.56915921757564,48.58130509723133
Carhaix,Carhaix-Plouguer,-3.5639169292028963,48.27645974077854
Quimperlé,Quimperlé,-3.552988951161868,47.86930999444454
Carnoët-Locarn,Locarn,-3.4905193806659134,48.34039896276361
Le Pénity,Duault,-3.4763547933678547,48.364540556402886
Plouaret,Plouaret,-3.4707559978260933,48.606506406088066
Lannion,Lannion,-3.460362272489274,48.72722615858606
Kerauzern,Ploubezre,-3.4453750123824385,48.65939464503882
Gestel,Gestel,-3.44324095590144,47.803068578129064
Callac,Callac,-3.418548488597128,48.40682753963829
Les Mais,Callac,-3.3828192436632682,48.426240661884535
Lorient,Lorient,-3.3745896768406194,47.75399826935425
Plougonver,Bulat-Pestivien,-3.370313057249656,48.45821664544371
Belle-Isle-Bégard,Louargat,-3.3227776597284024,48.59356255918787
Pont-Melvez,Pont-Melvez,-3.311372985807945,48.470123131360474
Hennebont,Hennebont,-3.2856204645468274,47.799055353042796
Coat-Guégan,Pont-Melvez,-3.2736870776921965,48.48042532938834
Moustéru,Bourbriac,-3.242782593047977,48.50779865852206
Brélidy-Plouëc,Plouëc-du-Trieux,-3.196262281923392,48.66919617633935
Brandérion,Brandérion,-3.1949294911011363,47.78234896492175
Trégonneau-Squiffiec,Squiffiec,-3.1741151582598786,48.624576045306256
Gourland,Grâces,-3.166769486434044,48.561110506298114
Pontrieux-Halte,Pontrieux,-3.1642225077258006,48.698063467596064
Guingamp,Guingamp,-3.1570936682142716,48.552990438861436
Pontrieux,Pontrieux,-3.1570661289395945,48.70557084895626
St-Pierre-Quiberon,St-Pierre-Quiberon,-3.1387071463654763,47.52094863815867
Kerhostin,St-Pierre-Quiberon,-3.1365143109950235,47.53629242755505
Traou-Nez,Plourivo,-3.1351552581003928,48.748555046136225
L'Isthme,St-Pierre-Quiberon,-3.1337344499030046,47.54632051797449
Penthièvre,St-Pierre-Quiberon,-3.1330988363857855,47.557783499659394
Les Sables-Blancs,Plouharnel,-3.1324401256820713,47.575228956476536
Frynaudour,Plourivo,-3.128588597562102,48.72796201898242
Landévant,Landévant,-3.1256384908243944,47.7595181090556
Plouharnel-Carnac,Plouharnel,-3.11838614250868,47.604321433015
Quiberon,Quiberon,-3.1181602769767847,47.48560436515137
Lancerf,Plourivo,-3.1181373405541466,48.76182498430737
Landaul-Mendon,Landaul,-3.085773818880881,47.73540701544521
Baud,Languidic,-3.073717475533748,47.87200576208017
Belz-Ploemel,Ploemel,-3.072226071368788,47.65254859798189
St-Rivalain,St-Barthélemy,-3.0657520618040444,47.946834304216615
Paimpol,Paimpol,-3.0460204685255223,48.77663514565281
St-Nicolas-des-Eaux,Pluméliau,-3.041030903856398,47.982676794521005
Lambel-Camors,Camors,-3.032621223200376,47.83217220918155
Pluvigner,Pluvigner,-3.0214882925434847,47.76592272046678
Auray,Auray,-3.0105509828722434,47.68179160860162
Châtelaudren-Plouagat,Plouagat,-2.9741649344387184,48.533233396218996
Pontivy,Pontivy,-2.965775460249527,48.061560197765296
Ste-Anne,Pluneret,-2.9605809733035744,47.67850522991184
Plouvara-Plerneuf,Plouvara,-2.8923958030229904,48.50863007517779
Quintin,St-Brandan,-2.8917008443682963,48.39735236712676
St-Gérand,St-Gérand,-2.8823927766747564,48.116535633914815
Le Pas,St-Brandan,-2.877413337136641,48.366388581663635
La Méaugon,La Méaugon,-2.8436939158087093,48.49946831241844
Ploeuc-L'Hermitage,L'Hermitage-Lorge,-2.828542180870071,48.33027764899066
Hémonstoir-St-Gonnery,Hémonstoir,-2.825064118460624,48.1470684445839
Plaintel,Plaintel,-2.8219554317761872,48.43544631960639
St-Julien (Côtes-d'Armor),St-Julien,-2.8134958649102346,48.45205617179672
Uzel,St-Hervé,-2.8082918114913507,48.28184236620754
St-Brieuc,St-Brieuc,-2.7737989776724743,48.50824301357313
Loudéac,Loudéac,-2.7630768955491005,48.18022614420751
La Motte,La Motte,-2.7546083806293225,48.225873040142915
Vannes,Vannes,-2.7524038812162512,47.66520979265519
Le Légué,St-Brieuc,-2.7222945397206892,48.52719430059503
Yffiniac,Yffiniac,-2.6522125948567945,48.47019943491513
Elven,Elven,-2.630414998921568,47.701240156196526
La Vraie-Croix,La Vraie-Croix,-2.546036642149646,47.69316774194916
Lamballe,Lamballe,-2.5114605660362828,48.465943469233224
Le Croisic,Le Croisic,-2.506895318720328,47.289762242015115
Batz-sur-Mer,Batz-sur-Mer,-2.4790683443610244,47.28094955600504
Questembert,Questembert,-2.449620953911625,47.683185303972046
Plestan,Plestan,-2.4420676366208736,48.42553840006436
Roc-St-André-la-Chapelle,La Chapelle-Caro,-2.4389420931773107,47.86351546980353
Le Pouliguen,Le Pouliguen,-2.433227448786401,47.28262437643912
Guérande,Guérande,-2.4103009062789127,47.32322521983983
Malestroit,St-Marcel,-2.403053967879488,47.807895936761064
Pleucadeuc,Pleucadeuc,-2.399266840447722,47.760635475950615
La Baule-Escoublac,La Baule-Escoublac,-2.3892599777754397,47.28869813033697
La Baule-les-Pins,La Baule-Escoublac,-2.3648225128958376,47.283706326064184
Plénée-Jugon,Plénée-Jugon,-2.354648763203393,48.37664297834419
Pornichet,Pornichet,-2.3447048449348613,47.27066127767772
Landébia,Landébia,-2.3313009843699817,48.50718444179737
Malansac,Malansac,-2.2953410975949944,47.67554186869082
St-André-des-Eaux,St-Nazaire,-2.293459903154681,47.29685627423627
Mauron,Mauron,-2.2734043148405774,48.08313927045103
Broons,Broons,-2.23584863546406,48.33337010660815
Plancoët,Plancoët,-2.2288084440080365,48.52143574734171
Gaël,Gaël,-2.215699778076285,48.13165756520922
St-Nazaire,St-Nazaire,-2.2113248000047743,47.28676363953024
Penhoët,St-Nazaire,-2.2007855058852326,47.29047012989129
La Croix-de-Méan,St-Nazaire,-2.1930931497631807,47.30061347537988
St-Jacut,St-Jacut-les-Pins,-2.187974713206649,47.67876710060804
St-Méen,St-Méen-le-Grand,-2.1832958935646998,48.18763908655117
Montoir-de-Bretagne,Montoir-de-Bretagne,-2.1616012671563407,47.32074062561389
Caulnes,Caulnes,-2.1554786779518045,48.2843914107651
Quédillac,Quédillac,-2.145221664824248,48.248597523539416
Corseul-Languenan,Languenan,-2.141517033211617,48.495955781575574
La Brohinière,Montauban-de-Bretagne,-2.1104779302744925,48.21346883098549
La Brohinière,La Brohinière,-2.107153829639361,48.21210514837887
Besné-Pontchâteau,Besné-Pontchâteau,-2.094746736993657,47.40594009154882
Redon,Redon,-2.088521843296661,47.65178482242304
Pontchâteau,Pontchâteau,-2.088383489771248,47.4363076121587
Sévérac,Sévérac,-2.0727871448485984,47.54983414389597
Donges,Donges,-2.071624327315269,47.30873250139083
Le Clion,Pornic,-2.0589113696548917,47.11645390775007
Dinan,Dinan,-2.0533876645378752,48.45702207710471
Montauban-de-Bretagne,Montauban-de-Bretagne,-2.052807491308817,48.19003805004627
Drefféac,Drefféac,-2.049996132974796,47.482266599289616
St-Gildas-des-Bois,St-Gildas-des-Bois,-2.044122473099628,47.51643540736758
La Bernerie,La Bernerie-en-Retz,-2.0337463797820448,47.08315583497202
Paimboeuf,Paimboeuf,-2.0274147324376246,47.28643967462114
St-Père-en-Retz,St-Père-en-Retz,-2.025306579549466,47.20847567291411
St-Viaud,St-Viaud,-2.0229524191945734,47.25542235415864
St-Malo,St-Malo,-2.004051313466777,48.6465302973296
La Hisse,St-Samson-sur-Rance,-2.003131989956737,48.49607050689392
Les Moutiers-en-Retz,Les Moutiers-en-Retz,-2.001416008442376,47.0619227003358
Avessac,Avessac,-1.9965175466146918,47.66511323886701
Pleudihen,Pleudihen-sur-Rance,-1.9616888510974266,48.499406343345896
Campbon,Campbon,-1.9593119806360024,47.41795113319767
Savenay,Savenay,-1.9557478901374268,47.360102663994745
Bourgneuf-en-Retz,Bourgneuf-en-Retz,-1.955093984580618,47.04698051501943
St-Hilaire-de-Riez,St-Hilaire-de-Riez,-1.9495637777713517,46.71663818404024
Montfort-sur-Meu,Montfort-sur-Meu,-1.9488124146633248,48.13908925033736
St-Gilles-Croix-de-Vie,St-Gilles-Croix-de-Vie,-1.9416096081871947,46.69649178580117
La Feuillardais-Vue,Arthon-en-Retz,-1.9407144095799012,47.1701817489863
Miniac,Miniac-Morvan,-1.9149128707848992,48.53148250249678
Massérac,Massérac,-1.913873068532598,47.6746637776041
Chemere-Arthon,Chéméré,-1.9118789870648718,47.125576002562894
La Gouesnière-Cancale,St-Méloir-des-Ondes,-1.9058914609971815,48.61441437058002
Notre-Dame-de-Riez,Notre-Dame-de-Riez,-1.9053660624198383,46.7494299384584
Soullans,Soullans,-1.8896314712453872,46.79162309170293
Breteil,Breteil,-1.881371759699423,48.140768930060936
Challans,Challans,-1.8714557869450372,46.84425765624209
Beslé,Guémené-Penfao,-1.870113281883948,47.69932007739704
St-Hilaire-de-Chaléons,St-Hilaire-de-Chaléons,-1.8669338619933717,47.106323984860104
Bois-de-Céné,Bois-de-Céné,-1.8661611154159312,46.93809417395249
Fougeray-Langon,Langon,-1.8511356217116504,47.72981320741973
Plerguer,Plerguer,-1.8505539748497366,48.53148389771887
Commequiers,Commequiers,-1.847645384656162,46.76088759822935
Cordemais,Cordemais,-1.8464028687005385,47.30218811667678
La Fresnais,La Fresnais,-1.8431700608326755,48.59366306337683
La Garnache,La Garnache,-1.8395230916847112,46.88947003520149
Bouvron,Bouvron,-1.8367352654598184,47.42890015770149
Machecoul,Machecoul,-1.823075713505101,46.990737529943715
L'Hermitage-Mordelles,L'Hermitage,-1.8192115152677604,48.12333577461155
Messac-Guipry,Messac,-1.8185528943247031,47.822313153048455
Ste-Pazanne,Ste-Pazanne,-1.8178751720275863,47.102436868078975
Irun,Hendaye,-1.8036485515050242,43.337642787597495
St-Maixent-sur-Vie,St-Maixent-sur-Vie,-1.8014060899029571,46.7467610921699
St-Étienne-de-Montluc,St-Étienne-de-Montluc,-1.7858205921935597,47.274743472718
Hendaye,Hendaye,-1.7821121201225452,43.35333854323205
Les Sables-d'Olonne,Les Sables-d'Olonne,-1.7816333428225135,46.500180558548664
Pléchâtel,Pléchâtel,-1.7765371382437842,47.872054146360256
Carteret,Barneville-Carteret,-1.7728938684814493,49.382601426421736
Olonne-sur-Mer,Olonne-sur-Mer,-1.7662528466161036,46.549220388406184
St-Senoux-Pléchâtel,St-Senoux,-1.7661353305032643,47.89787749005208
Bonnemain,Bonnemain,-1.7650851434863233,48.47629730968968
Les Deux Jumeaux,Hendaye,-1.7643241387888178,43.369975296762846
Guichen-Bourg-des-Comptes,Guichen,-1.7599639482408365,47.93524867728417
Barneville,Barneville-Carteret,-1.7562000368823147,49.37583535957555
Bruz,Bruz,-1.751863126756572,48.02873873088183
Dol,Dol-de-Bretagne,-1.7498724893257498,48.5438989124489
Laillé,Guichen,-1.74943485888762,47.97104695918046
Coëx,Coëx,-1.7430426380279878,46.70130536098553
Port-St-Père-St-Mars,Port-St-Père,-1.7396990658103328,47.11619407612604
Ker-Lann-Bruz,Bruz,-1.7393119191210846,48.043372243048715
St-Georges-de-la-Rivière,St-Georges-de-la-Rivière,-1.7323759622176222,49.3619294060729
Combourg,Combourg,-1.7275018725289637,48.41615112375191
Couëron,Couëron,-1.7234557879619508,47.221994066711396
St-Jacques-de-la-Lande,St-Jacques-de-la-Lande,-1.7137448674474416,48.067572719890535
Rennes,Rennes,-1.70053591391335,48.10647919088375
Pontchaillou,Rennes,-1.6918010732042623,48.118263556361434
Port-Bail,Portbail,-1.6915993498401014,49.33706545322681
Dingé,Dingé,-1.6858320308083297,48.350707672331545
Bouaye,Bouaye,-1.6810094320678457,47.13797879268768
Montreuil-sur-Ille,Montreuil-sur-Ille,-1.6743390553619777,48.30717693651349
Couville,Couville,-1.6699118389014989,49.55485903309955
St-Lô-d'Ourville,St-Lô-d'Ourville,-1.669514720333472,49.33543776640751
St-Médard-sur-Ille,St-Médard-sur-Ille,-1.667513154566356,48.27430081843578
Martinvast,Martinvast,-1.6649387530915605,49.59503361954365
La Boussac,La Boussac,-1.6632533017530344,48.51681045788561
St-Jean-de-Luz-Ciboure,St-Jean-de-Luz,-1.6611208755768612,43.385630538051984
La Basse-Indre-St-Herblain,St-Herblain,-1.6602347065108651,47.20418674117418
St-Germain-sur-Ille,St-Germain-sur-Ille,-1.660059294471417,48.24256859137304
La Mothe-Achard,La Mothe-Achard,-1.6580306778797718,46.606836768164996
Denneville,Denneville,-1.6389116626011933,49.33036912519498
Betton,Betton,-1.634223144594651,48.181400267622394
Chevaigné,Chevaigné,-1.6309255798376718,48.20905987621851
La Poterie,Rennes,-1.6305840948465853,48.09198766148978
Cherbourg,Cherbourg-Octeville,-1.620837020380606,49.63310830892097
Guéthary,Guéthary,-1.6098691396108815,43.42532742825411
Aizenay,Aizenay,-1.6036605957968666,46.738450464205656
Cesson-Sévigné-Halte,Cesson-Sévigné,-1.6025797023840933,48.11257394590477
Vern,Vern-sur-Seiche,-1.5965909352175605,48.046974665413465
Chantenay,Nantes,-1.594917252652802,47.197006445696296
St-Armel,St-Armel,-1.5948547752316886,48.0141604702014
Sottevast,Sottevast,-1.5925867529224995,49.52500682469178
Bidart,Bidart,-1.5889988835698163,43.43065830130513
Ste-Flaive,Ste-Flaive-des-Loups,-1.5889104434960846,46.62323887594738
Granville,Granville,-1.586871632173377,48.838761823690255
Corps-Nuds,Corps-Nuds,-1.5753452447296863,47.9851600084036
Pleine-Fougères,Pleine-Fougères,-1.5658410057267649,48.529907052225326
Nantes-État,Nantes,-1.5583926526015786,47.20409072670003
Rezé-Pont-Rousseau,Rezé,-1.5494924828879282,47.193334669641864
La Chapelle-sur-Erdre,La Chapelle-sur-Erdre,-1.5480084111842018,47.29780936176807
Biarritz,Biarritz,-1.5467011965059916,43.459039067064325
La Haye-du-Puits,St-Symphorien-le-Valois,-1.5465253053757564,49.29516758210058
Babinière,La Chapelle-sur-Erdre,-1.5449306110601506,47.258858612129146
Erdre-Active,La Chapelle-sur-Erdre,-1.5446200380002786,47.28298910738411
Nantes,Nantes,-1.544230274778459,47.2164535014857
La Chapelle-Aulnay,Sucé-sur-Erdre,-1.541393055983696,47.308759629047756
Nantes-État,Nantes-État,-1.534116106191633,47.21329759207054
Les Clouzeaux,Venansault,-1.5325607481822912,46.63812347608489
Sucé-sur-Erdre,Sucé-sur-Erdre,-1.5306374558539124,47.34270309289346
Noyal-Acigné,Noyal-sur-Vilaine,-1.52841295004082,48.11889445741282
St-Joseph,Nantes,-1.5268856969330709,47.251737395359726
Casson,Casson,-1.5266052710636977,47.39546830430231
Abbaretz,Abbaretz,-1.5243134666577733,47.55546171193697
Haluchère,Nantes,-1.5225453757032792,47.24914745560844
Doulon,Nantes,-1.5184655468785433,47.22653787141815
La Genétouze,La Génétouze,-1.5149464841150968,46.72172375785878
Pas-Enchantés,St-Sébastien-sur-Loire,-1.5111470691146225,47.207052760047006
Pontorson-Mont-St-Michel,Pontorson,-1.5049088100541217,48.55243177361564
Saffré,Joué-sur-Erdre,-1.504065529160579,47.509397603669065
Nort-sur-Erdre,Nort-sur-Erdre,-1.5034401991651145,47.44185260156143
Janzé,Janzé,-1.4978379622767402,47.95533598198707
Frêne-Rond,St-Sébastien-sur-Loire,-1.4960494436042044,47.19082056272342
Carquefou,Carquefou,-1.4915400969448018,47.27691218565224
Marracq,Bayonne,-1.4912155320923808,43.4935452685691
Le Boucau,Boucau,-1.4904877481926235,43.523323440809385
St-Planchers,St-Planchers,-1.4900849249447317,48.83561719395482
Bayonne-Allées-Marines,Bayonne,-1.4837730762518793,43.497483074379026
Valognes,Valognes,-1.4803368576979012,49.50541760770657
Vertou,Vertou,-1.4779607078099417,47.18605510217721
Lithaire,Lithaire,-1.4745801748054728,49.297032502912856
Behereharta,Villefranque,-1.4726703610196223,43.45100800203061
Bayonne,Bayonne,-1.4721804251258617,43.48238247094629
Ste-Luce,Ste-Luce-sur-Loire,-1.4680539477894616,47.24869032423347
Servon,Servon-sur-Vilaine,-1.463135340881243,48.11223075302593
Orval-Hyenville,Orval,-1.4614710513677571,48.99399821266422
Ondres,Ondres,-1.4568960382416112,43.56878779017317
Villefranque,Villefranque,-1.4564591737113852,43.431475155121184
St-Mars-du-Désert,St-Mars-du-Désert,-1.4550535142010168,47.335754858819705
Rougé,Rougé,-1.4548017184676745,47.782840235437156
Quettreville-sur-Sienne,Quettreville-sur-Sienne,-1.4543722146631357,48.969043697261284
Issé,Issé,-1.4510327756308936,47.62683893148898
Ustaritz,Ustaritz,-1.4488471081984176,43.40463594730001
Jatxou,Ustaritz,-1.4447372183625449,43.39103536760935
Coutances,Coutances,-1.4415067598279108,49.042671838156394
Thouaré,Thouaré-sur-Loire,-1.4410410668856464,47.26508698273898
Louisfert,Louisfert,-1.43989655546102,47.6840383963361
Hudimesnil,Hudimesnil,-1.439618865288814,48.86850514451477
La Roche-sur-Yon,La Roche-sur-Yon,-1.437117541651215,46.68109113258075
Belleville-Vendée,Belleville-sur-Vie,-1.4346099492050681,46.788322662319686
Le Theil-de-Bretagne,Le Theil-de-Bretagne,-1.4321549870817585,47.918727842581596
Labenne,Labenne,-1.4287867645627326,43.587071200442956
Halsou-Larressore,Halsou,-1.4281029976222666,43.37828240296839
Servon-Tanis,Servon,-1.4276324751693144,48.59646729774415
Cérences,Cérences,-1.427200492932556,48.91995325990879
St-Denis-lès-Lucs,St-Denis-la-Chevasse,-1.421950910459935,46.83572072999856
Montviron-Sartilly,Montviron,-1.4210230628475449,48.74134116958644
St-Jores,St-Jores,-1.4201442394828168,49.300822072851645
Nesmy,Nesmy,-1.4109803282739384,46.59516222707398
La Claie,Issé,-1.4101580375060234,47.64653533314449
Folligny,Folligny,-1.408494093735334,48.83049298727163
Montebourg,Le Ham,-1.406684294390948,49.46001676433739
Châteaubourg,Châteaubourg,-1.4051571846124769,48.10629591057403
La Haye-Pesnel-La Lucerne,La Lucerne-d'Outremer,-1.4012218008218256,48.79352765584898
Ligné,Ligné,-1.4005187228796512,47.356915367570075
Cambo-les-Bains,Cambo-les-Bains,-1.3966824192311882,43.36555793170391
Itxassou,Itxassou,-1.3953094897515634,43.32408263835211
La Haie-Fouassière,La Haie-Fouassière,-1.3922528262669975,47.161487110347885
Retiers,Retiers,-1.389795493132067,47.91327245102403
Mauves-sur-Loire,Mauves-sur-Loire,-1.3891236095280926,47.2928631547842
Lahonce,Lahonce,-1.3867103429880578,43.49099168946438
Fresville,Fresville,-1.3809056949688092,49.43493294310286
Les Courtesolles,Chaillé-sous-les-Ormeaux,-1.373970490238201,46.54946200821554
Teillé-Mouzeil,Teillé,-1.3733952377089296,47.39351191503712
Châteaubriant,Châteaubriant,-1.3732436624320201,47.71132988066221
Châteaubriant Tram-Train,Châteaubriant,-1.3712729368931238,47.71748442009603
L'Herbergement-Les Brouzils,L'Herbergement,-1.371150132374484,46.906901994987535
Bénesse-Maremne,Bénesse-Maremne,-1.3700388001254635,43.6275994871714
Avranches,Avranches,-1.3698642916354478,48.69039945436693
Louhossoa,Louhossoa,-1.3623980855768671,43.30568083956216
Urcuit,Urcuit,-1.3576738390461818,43.49509303641772
Baupte,Auvers,-1.3555721610108038,49.304776801172295
Pontaubault,Le Val-St-Père,-1.353243514718638,48.63909102669031
Le Cellier,Le Cellier,-1.3509301011197743,47.3131633554109
Bidarray,Bidarray,-1.3506058490773891,43.275489654932336
Belval,Belval,-1.3502044037726173,49.0733982580443
Le Pallet,Le Pallet,-1.3466366704701698,47.143815601866606
Pont-Noblia,Bidarray,-1.3450062761181958,43.26802927739347
St-Étienne-de-Baïgorry,St-Étienne-de-Baïgorry,-1.3449091230010006,43.17489350808529
Chef-du-Pont-Ste-Mère,Chef-du-Pont,-1.3442713511001971,49.3845366358491
Champ-St-Père,Le Champ-St-Père,-1.3417180262922948,46.51333829296952
Noyal-sur-Brutz,Noyal-sur-Brutz,-1.337899274635464,47.759933138324214
Pannecé-Riaillé,Pannecé,-1.3358319770675415,47.43148682409362
Clermont-sur-Loire,Le Cellier,-1.3301121424910236,47.325617784482404
Les Lacs,St-Aubin-des-Landes,-1.3223472926555535,48.109081657042296
Montaigu-Vendée,Montaigu,-1.3163969087347602,46.98376391235179
Gorges,Gorges,-1.3136948356152829,47.10786193841351
Martigné-Ferchaud,Martigné-Ferchaud,-1.3134643682645375,47.83198913178168
St-Vincent-de-Tyrosse,St-Vincent-de-Tyrosse,-1.3064199257319271,43.65764559327289
Ossès-St-Martin-d'Arrossa,St-Martin-d'Arrossa,-1.3049593113522455,43.23531217340689
Ossès-St-Martin-d'Arrossa,Ossès-St-Martin-d'Arrossa,-1.3044036557740015,43.234471019177725
Urt,Urt,-1.299755539131055,43.49939181277367
Soudan,Soudan,-1.2986075816958236,47.73531396440411
Oudon,Oudon,-1.2923237823306528,47.3431984973829
Auvers (Manche),Auvers,-1.288765195723622,49.30215218571516
St-Mars-la-Jaille,St-Mars-la-Jaille,-1.2866131743462401,47.457564974668294
Clisson,Clisson,-1.28640768160279,47.08599734750532
La Chaize-le-Vicomte,La Chaize-le-Vicomte,-1.2822535656281937,46.6767862970208
Cametours,Cametours,-1.2819074317188164,49.068077000132554
Freigné,Freigné,-1.2588873036188315,47.48784250418119
Cugand-la-Bernardière,Cugand,-1.2534601613533978,47.05830362769608
La Bretonnière (Vendée),La Bretonnière-la-Claye,-1.252039676537641,46.47502358392089
Gérard,Montreuil-sous-Pérouse,-1.2479111269256251,48.14298294507697
Carantilly-Marigny,Carantilly,-1.2445173231987563,49.067875055689846
Carentan,Carentan,-1.242069292807631,49.301755333623426
St-Geours-de-Maremne,St-Geours-de-Maremne,-1.241071350268976,43.671276975525714
St-Jean-Pied-de-Port,St-Jean-Pied-de-Port,-1.238621645776675,43.168113297949574
Fougeré,Fougeré,-1.2312389699071118,46.66508012164906
Villedieu-les-Poêles,Villedieu-les-Poêles,-1.2252725559060436,48.83422968008511
Fougères,Fougères,-1.2240658524725367,48.39041970906662
Les-Magnils-Reigniers,Les Magnils-Reigniers,-1.2220897253266914,46.47503468896541
La Rochelle-Pallice,La Rochelle,-1.2216053949940089,46.159899443404726
Vitré,Vitré,-1.2195581579204626,48.12208369814374
Cande,Candé,-1.2128457903104244,47.51865565948353
Balazé,Balazé,-1.210457909800017,48.17543205219994
Saubusse-les-Bains,Saubusse,-1.1902780504450248,43.66023352899589
Sames-Guiche (Pyrénées-Atlantiques),Sames,-1.188288310497138,43.53096066838113
Boussay-La Bruffière,Boussay,-1.1828015969908297,47.05058005563971
Châtillon-en-Vendelais,Châtillon-en-Vendelais,-1.1825876157224375,48.22653950809546
Ancenis,Ancenis,-1.1777731365538755,47.369472788852256
Bournezeau,Bournezeau,-1.1776110604104528,46.651488845185106
Pouancé,Pouancé,-1.1754387372644182,47.747172121838894
Canisy,St-Gilles,-1.1750683568853408,49.08213345835959
Luçon,Luçon,-1.1674252272879222,46.46372375938147
Arcachon,Arcachon,-1.165311959015783,44.65884069382592
La Rochelle-Champs-de-Mars,La Rochelle,-1.1539381839008849,46.16767128451453
Angrie-Loire,Angrie,-1.1524448720121725,47.52877268102413
La Rochelle-Porte-Dauphine,La Rochelle,-1.1519985534629122,46.167513315768005
La Selle-en-Luitré,Luitré,-1.15143823788637,48.312301465795144
La Rochelle-Ville,La Rochelle,-1.1451601240841305,46.15251607781638
Rivière,Rivière-Saas-et-Gourby,-1.1448726399837823,43.676623394509505
La Teste,La Teste-de-Buch,-1.1428117771048203,44.63711174416608
Dompierre-du-Chemin,Dompierre-du-Chemin,-1.142074058035323,48.265195595553074
La Rochelle-Ville,La Rochelle-Ville,-1.1408319563078688,46.155426171403064
La Tremblade,La Tremblade,-1.140010947359264,45.76526039923069
Aytré-les-Minimes,Aytré,-1.1374290146604535,46.13188903086057
La Grève,La Tremblade,-1.1357340116298644,45.77006524823882
Aytré-Plage,Aytré,-1.128490510325061,46.127638238244565
Pont-Hébert,La Meauffe,-1.1270817598708427,49.161934859498565
St-Aubin-des-Bois,St-Aubin-des-Bois,-1.1229074445538432,48.82971923790657
Soulac-sur-Mer,Soulac-sur-Mer,-1.1173914895310382,45.507969972595404
Torfou,Torfou,-1.117022064720812,47.033015602707955
La Hume,Gujan-Mestras,-1.1160340324563962,44.640021824616134
Angoulins-sur-Mer,Angoulins,-1.1156235601119509,46.10794733842751
Peyrehorade,Peyrehorade,-1.115201805409079,43.546783721257896
Aytré,Aytré,-1.1114413796499352,46.13739588840414
Ste-Gemme-Pètre,Ste-Gemme-la-Plaine,-1.1096602769295376,46.47105753777882
Rompsay,Périgny,-1.1085794202530723,46.16682142011515
Mées,Mées,-1.1063336784205076,43.702387543032636
L'Église-de-Peyrehorade,Peyrehorade,-1.1035857122752746,43.54578085247533
Neuilly,Neuilly-la-Forêt,-1.103020338573319,49.267299014065294
St-Lô,St-Lô,-1.1029471786816731,49.11459815333768
La Meauffe,Airel,-1.1006631987463864,49.183826066843785
St-Lô,Agneaux,-1.1002485723832722,49.11670631267157
Torfou-Tiffauges,Torfou,-1.0936531972248982,47.032813791793274
Châtelaillon,Châtelaillon-Plage,-1.0909897365973569,46.0785371421994
Chaze-sur-Argos,Chazé-sur-Argos,-1.0881748336789019,47.54464627056275
Vergonnes,Vergonnes,-1.0853707527608096,47.72873232580336
La Jarne-St-Rogatien,St-Rogatien,-1.0803434056919758,46.134055711278044
Airel,Airel,-1.0786861925026079,49.21841119081045
St-Vincent-Ste-Cécile,St-Vincent-Sterlanges,-1.076842169684033,46.73636565199679
Chaillevette,Chaillevette,-1.07240810072455,45.7306997047109
Gujan-Mestras,Gujan-Mestras,-1.0688702164609716,44.64066139366233
Talais,Talais,-1.0673488689137884,45.463980318081724
Dompierre-sur-Mer,Dompierre-sur-Mer,-1.0671850776414793,46.17485152655725
Dax,Dax,-1.0664879514100605,43.70992681254756
La Pointe-de-Grave,Le Verdon-sur-Mer,-1.065586765452165,45.566668060911596
Le Verdon,Le Verdon-sur-Mer,-1.064886696751186,45.54924765751
Chaze-Henry,Chazé-Henry,-1.0571034605046064,47.8218848071831
Chantonnay,Chantonnay,-1.0546270262215476,46.68999425821053
Peyrouton,Dax,-1.054439825495538,43.698983556998265
Lison,Lison,-1.0534386972232002,49.226912468791475
St-Sever,St-Sever-Calvados,-1.051643849945736,48.84362836466453
Lison,Moon-sur-Elle,-1.0501862750212996,49.22701298358082
Le Marouillet,Yves,-1.0460444687539872,46.040259630115536
Andilly-St-Ouen,St-Ouen-d'Aunis,-1.0449785929092106,46.246284996218264
St-Vivien,St-Vivien-de-Médoc,-1.0417644179109458,45.42619908975614
Condé-sur-Vire,Condé-sur-Vire,-1.0399800477659178,49.051255525782956
Nalliers,Nalliers,-1.0311086274850263,46.46820439537378
Combrée,Combrée,-1.0294163346129592,47.71963460081671
St-Laurent-de-la-Prée,St-Laurent-de-la-Prée,-1.0286340185347196,45.9937452820728
La Jarrie,La Jarrie,-1.0259283311478975,46.121470608367645
Le Teich,Le Teich,-1.0256077298254895,44.63235011251188
St-Pierre-la-Cour,St-Pierre-la-Cour,-1.0252991505882505,48.11359965015547
Varades-St-Florent-le-Vieil,Varades,-1.0197571908983485,47.37440465988891
Royan,Royan,-1.0163681948342305,45.625725605213496
Les Herbiers,Les Herbiers,-1.0097411894050767,46.86349734339873
Labatut,Labatut,-1.0057721753218216,43.54335821567263
Basta-les-Forges,St-Vincent-de-Paul,-1.0032664172461632,43.76823029849498
Queyrac-Montalivet,Queyrac,-1.0013141478864165,45.3661469769647
Marans,Marans,-1.0013018564331422,46.30412349881491
Buglose,St-Vincent-de-Paul,-0.995060449497495,43.78114788470289
Caudos,Mios,-0.9908754895454732,44.544519948652656
Mesnil-Clinchamps,Mesnil-Clinchamps,-0.989370073706648,48.85413522415953
Evrunes,Mortagne-sur-Sèvre,-0.9784332523624264,47.01015383123613
Mimbaste,Mimbaste,-0.9765726851747204,43.650641556135334
Port-Brillet,Port-Brillet,-0.9739588715536818,48.1106546644729
Sigournais,Chantonnay,-0.9730907643636676,46.69117693748702
Lugos,Lugos,-0.9700594385701492,44.443953067453855
Gaillan,Gaillan-en-Médoc,-0.9700296424208716,45.320006343848036
Laluque,Laluque,-0.9672979838812428,43.82458727060246
Montrelais,Montrelais,-0.966334718008156,47.389278161693056
Facture-Biganos,Biganos,-0.9662062931499816,44.63717129178578
Rochefort,Rochefort,-0.963548062025048,45.94746632056426
Le Langon,Le Langon,-0.9622437918882244,46.44638773520546
Noyant-la-Gravoyère,Noyant-la-Gravoyère,-0.9601205757746892,47.697376029333704
Les Epesses,Les Herbiers,-0.959227023842552,46.873367505513905
La Selle-Craonnaise,La Selle-Craonnaise,-0.9572490822308002,47.83912752843815
Aigrefeuille-Le Thou,Le Thou,-0.9520837088782028,46.09393484633779
Chambretaud,Chambretaud,-0.9499888584636524,46.914239096208384
L'Île-d'Elle,L'Île-d'Elle,-0.9463982865806384,46.32603145495111
Ychoux,Ychoux,-0.9460284185116928,44.32915487046358
Lesparre,Lesparre-Médoc,-0.9453847844754256,45.3035111303514
Mortagne-sur-Sèvre,Mortagne-sur-Sèvre,-0.9443382153718448,46.99466003454725
Mortain-Le Neufbourg,Le Neufbourg,-0.9442365599846431,48.66251312417307
Misson-Habas,Misson,-0.9415482190727796,43.5885371922096
St-Christophe-du-Bois,St-Christophe-du-Bois,-0.9395975588166452,47.03068443420222
Chavagnes-les-Redoux,Monsireigne,-0.9305435526740796,46.72606808786297
Saujon,Saujon,-0.9304198523002454,45.66696039861186
Sourdeval,Sourdeval,-0.9293065085997362,48.72516687935993
Hinx-sur-Adour,Hinx,-0.9228648796369904,43.700903627359246
Labouheyre,Labouheyre,-0.9210927558174826,44.21058713206437
Ingrandes-sur-Loire,Ingrandes,-0.9206402903806504,47.405820890354825
Rion-des-Landes,Rion-des-Landes,-0.9176884907423392,43.917859379495965
Solférino,Solférino,-0.9163082360869491,44.14549164697221
Puyoô,Puyoô,-0.9132691310779734,43.524930944707954
Vire,Vire,-0.9106380524032384,48.8462666479729
St-Germain-de-Tallevende,St-Germain-de-Tallevende-la-Lande-Vaumont,-0.909551844158206,48.797029412462436
Morcenx,Morcenx,-0.9085587031342428,44.034004086989654
St-Laurent-sur-Sèvre,St-Laurent-sur-Sèvre,-0.9084686924614658,46.95215945321703
Craon,Craon,-0.9043284783505042,47.85998663345726
Vix (Vendée),Le Gué-de-Velluire,-0.9001852126812191,46.37009892567186
Tonnay-Charente,Tonnay-Charente,-0.8978672534235085,45.943317394255935
St-Germain-d'Esteuil,St-Germain-d'Esteuil,-0.8928991265084615,45.27527544980197
Velluire,Velluire,-0.8910695556041146,46.40224088404092
Le Genest,Le Genest-St-Isle,-0.8855278989137388,48.096776375085646
Forges-d'Aunis,Forges,-0.8831217893037345,46.10006297943733
Le Molay-Littry,Le Molay-Littry,-0.8815891845165226,49.249208492976464
La Traverserie,Corme-Écluse,-0.8804073916700798,45.61357541315732
Gamarde-les-Bains,Gamarde-les-Bains,-0.8758453661548421,43.71824712634476
Les Maures,Chaulieu,-0.8750289805293668,48.74999077107608
Champtocé-sur-Loire,Champtocé-sur-Loire,-0.8704801067049378,47.410341430998905
Cholet,Cholet,-0.8702964235455685,47.06618658131302
Segré,Segré,-0.8667352899427592,47.67845359263974
Arjuzanx,Arjuzanx,-0.865217021927968,44.01406961119228
La Meilleraie (Vendée),Réaumur,-0.8642699382094895,46.74203841509074
Marcheprime,Marcheprime,-0.8537476244675413,44.69053899851708
Baigts-de-Béarn,Baigts-de-Béarn,-0.8457489039234927,43.51031136440334
Chambon,Chambon,-0.8423981159513876,46.107978937907156
Montfort-en-Chalosse,Montfort-en-Chalosse,-0.839850634907965,43.714490027267196
La Ferrière-de-Flée,La Ferrière-de-Flée,-0.8379449970538088,47.730565749663974
St-Romain-de-Benet,St-Romain-de-Benet,-0.8358439692533701,45.68620451883861
Cozes,Cozes,-0.832959287113132,45.58644508944235
Vertheuil,Vertheuil,-0.8276351497113349,45.25294930724953
St-Berthevin,St-Berthevin,-0.8166658819673941,48.067426835672954
Croix-d'Hins,Marcheprime,-0.8151102010195084,44.709874302774
Pouzauges,La Meilleraie-Tillay,-0.814155696992413,46.75251044463558
Crouay,Crouay,-0.811405417225312,49.25962466763898
Arengosse,Arengosse,-0.8093821272281273,44.00686780054657
Trémentines,Trémentines,-0.8086571879670121,47.13503794280531
Bords,Bords,-0.7985470006648815,45.89442546281429
Fontenay-le-Comte,Fontenay-le-Comte,-0.7930362582466945,46.460909081904795
Lourquen,Lourquen,-0.7912394607028649,43.73428219688167
St-Estèphe,St-Estèphe,-0.7871327475438892,45.23781299093515
Pisany,Thézac,-0.7860722211557933,45.6954601705996
St-Laurent-St-Julien,St-Laurent-Médoc,-0.7846909766338984,45.15568995230876
Chemazé,Chemazé,-0.7791805721479519,47.7886318729134
St-Cyr-St-Georges,St-Roch-sur-Égrenne,-0.7755246749635356,48.57432444576712
Viessoix,Viessoix,-0.7751102877070204,48.82532044868619
Orthez,Orthez,-0.7670883745048203,43.484043665267585
Pierroton,Cestas,-0.7642311079317042,44.73722832661211
Surgères,Surgères,-0.7620326984420913,46.11335235759793
Laval,Laval,-0.7608589127459773,48.076343597109215
Maulévrier,Maulévrier,-0.7575314091865822,47.01359676907626
Trompeloup,Pauillac,-0.7552442463169888,45.22083481846645
Pauillac,Pauillac,-0.7551047325313479,45.20382280173109
St-Georges-sur-Loire,St-Georges-sur-Loire,-0.754440222967457,47.38343294323184
St-André-de-Lidon,St-André-de-Lidon,-0.7515083054744758,45.59784049884841
Mugron,Mugron,-0.7478887532207987,43.747467647057
Moulis-Listrac,Moulis-en-Médoc,-0.7446705060937799,45.08398014047938
Chalonnes,Chalonnes-sur-Loire,-0.7437967053024781,47.34278743126004
Varzay,Varzay,-0.7433484029040205,45.699764878010036
Toctoucau,Cestas,-0.7395759277024407,44.75041384028236
Bernières-le-Patry,Bernières-le-Patry,-0.7390873277863841,48.80981832765831
St-Martin-de-Fraigneau,St-Martin-de-Fraigneau,-0.7380673079542991,46.435780879158145
Ygos,Ygos-St-Saturnin,-0.7361946513814615,43.97828382638989
St-Mesmin-le-Vieux,St-Mesmin,-0.7321434342835056,46.79036888875781
Chemillé,Chemillé,-0.7321135965170938,47.217831141534155
St-Georges-du-Bois,St-Georges-du-Bois,-0.7310954638251849,46.139164366998656
La Jumellière,La Jumellière,-0.7264740968052421,47.27486235343244
Mauléon-St-Aubin,Mauléon,-0.7208175369633131,46.93317257536826
Louverné,Louverné,-0.7143217885692368,48.10888106533703
Soussans,Soussans,-0.7116820426011085,45.05308458744575
Gazinet-Cestas,Cestas,-0.6992749775100037,44.772173366103246
Bayeux,Bayeux,-0.6983008939713908,49.26958107576529
St-Pierre-d'Amilly,St-Pierre-d'Amilly,-0.6971581369875259,46.17049007836385
Château-Gontier,Château-Gontier,-0.6949560002661606,47.831333007506274
La Possonnière,La Possonnière,-0.6947623568161956,47.3710368136793
Margaux,Margaux,-0.6854294582889482,45.03585421890331
Argagnon,Mont,-0.6789592010071647,43.44809762523226
Torchamp,Torchamp,-0.6787337713157809,48.52975813024489
Nieul-Oulmes,Oulmes,-0.6786045878902811,46.40947732023281
St-Savinien-sur-Charente,St-Savinien,-0.6777005310795884,45.875818750519606
Montsecret-Vassy,Montsecret,-0.6773487831749488,48.80672070353995
Breuil-Barret,Breuil-Barret,-0.674012819982806,46.64835672517191
Mauzé,Mauzé-sur-le-Mignon,-0.6737517804300365,46.19973329084157
Gémozac,Gémozac,-0.6736251323154613,45.57352965154069
Domfront (Orne),Domfront (Orne),-0.6690102331503165,48.58482444229713
Cerizay,Cerizay,-0.6671289797946683,46.81734772432373
Blaye,Blaye,-0.6632273738137431,45.12778957605492
Domfront (Orne),Domfront,-0.6622435880117594,48.589557382481324
Alouette-France,Pessac,-0.659796860254482,44.79332480156728
Savennières-Béhuard,Savennières,-0.6545272950459525,47.38152499451488
Montaut (Landes),Montaut,-0.6539356255968358,43.7444393751978
St-Martin-d'Oney,St-Martin-d'Oney,-0.6516901053381375,43.930059358210656
Ceaucé,Ceaucé,-0.6478348012226033,48.494589148164046
La Chapelle-Anthenaise,La Chapelle-Anthenaise,-0.6448575152751108,48.129112255528824
Taillebourg,Taillebourg,-0.6444265592800199,45.83016744694956
Le Pontreau,Bussac-sur-Charente,-0.6389577588405689,45.795863777324364
Labarde,Labarde,-0.6381870673992077,45.022219482351645
Martigné,Martigné-sur-Mayenne,-0.6374307943331655,48.18734798881047
Prin-Deyrançon,Prin-Deyrançon,-0.6364724370130495,46.21900408049304
Pessac,Pessac,-0.631981201223286,44.80432882276649
Caudéran-Mérignac,Mérignac,-0.6274455363194257,44.84255397243456
Lacq,Lacq,-0.627008566022198,43.411833655464775
Arlac,Mérignac,-0.6262433168299258,44.826770832877074
Blanquefort,Blanquefort,-0.6237741023506539,44.91756827628922
Ambrières-Centre,Ambrières-les-Vallées,-0.6214787041963835,48.40003845029769
Macau,Macau,-0.6199097396610891,45.00404192885203
Parempuyre,Parempuyre,-0.6195314531210911,44.94382425007321
Gennes-Longuefuye,Longuefuye,-0.6192379113270247,47.87330608514277
Saintes,Saintes,-0.6181335084445412,45.744735830799605
La Pointe-Bouchemaine,Bouchemaine,-0.6175858300998756,47.41709437576613
Montreuil-Belfroi,Montreuil-Juigné,-0.6175200991044778,47.52540333074923
Commer,Commer,-0.6128064255294529,48.23822234937331
Oloron-Ste-Marie,Oloron-Ste-Marie,-0.6122022589686994,43.19475600274593
Ludon,Ludon-Médoc,-0.6117685232073152,44.974324081796226
Mayenne,Mayenne,-0.6111311452638848,48.298718893955495
Bruges,Bruges,-0.6089353584157182,44.88594609311808
Accous,Accous,-0.6088496342681003,42.97486976012677
Augreilh,St-Sever,-0.6086549739701759,43.755367175354785
Bidos,Bidos,-0.6069766623455745,43.178929808581245
St-Christau-Lurbe,Lurbe-St-Christau,-0.6056142320669403,43.12021264473371
Ravezies,Le Bouscat,-0.6043943553989548,44.880620058760755
Bordeaux-Docks,Le Bouscat,-0.6043943553989548,44.880620058760755
Cerisi-Belle-Étoile,Cerisi-Belle-Étoile,-0.6043649400623469,48.77518815887719
Bedous,Bedous,-0.603956944390177,42.995201820410955
Audignon,Audignon,-0.6038600447716996,43.72005731964934
Cerisi-Belle-Étoile,Cerisy-Belle-Étoile,-0.6031179303636254,48.774505577933205
Lescun-Cette-Eygun,Cette-Eygun,-0.6025602918286039,42.94020779156913
Sarrance,Sarrance,-0.5997248045916801,43.0497218624196
Bordeaux-St-Jean,Bordeaux-St-Jean,-0.59966761640612,44.81660195258944
Talence-Médoquine,Talence,-0.5987899464614616,44.816910764214974
Ravezies,Ravezies,-0.5971479634173816,44.873480064034545
Audrieu,Audrieu,-0.595249263722527,49.21631849081571
Moncoutant,Moncoutant,-0.5945404033442333,46.7292472282934
Gurmençon,Gurmençon,-0.5928873977832634,43.15691775087076
Nueil-Les Aubiers,Nueil-les-Aubiers,-0.5927922435304631,46.9408915684222
Caligny,Caligny,-0.5911748678726418,48.81030590736293
Fontcouverte,Fontcouverte,-0.5887627956535001,45.773916627745706
Hagetmau,Hagetmau,-0.5834873628677665,43.65924203793236
Benet,Benet,-0.5824691491111218,46.37931406122098
Épannes,Frontenay-Rohan-Rohan,-0.5822351527460031,46.24456492752232
Le Chatellier,Le Châtellier,-0.5813872822788945,48.67495492783634
Le Bec-d'Ambès,Ambès,-0.57999703752587,45.02263255052982
Flers,Flers,-0.5735342156088675,48.744326339473496
St-Sever (Landes),St-Sever,-0.5731146178673382,43.76520535920759
Etsaut,Etsaut,-0.5724108690262413,42.91251266880129
Artix,Labastide-Cézéracq,-0.5698747245362312,43.39281849595891
St-Fraimbault-de-Prières,St-Fraimbault-de-Prières,-0.5656817897953598,48.34529470970129
Forges-d'Abel,Borce,-0.562259947104438,42.820342634930675
Le Douhet-Écoyeux,Le Douhet,-0.5595448320692061,45.81356394366598
Urdos,Urdos,-0.5592110508719986,42.87943205969781
Angers-St-Laud,Angers,-0.5567952208428962,47.464369920004714
Bordeaux-St-Jean,Bordeaux,-0.5559775161877916,44.82592310199666
Condé-sur-Noireau,Condé-sur-Noireau,-0.5553865011611705,48.84187050716731
Bègles,Bègles,-0.5552170407268199,44.7994219622282
Montsûrs,Brée,-0.5513117164190743,48.141287152322356
Bordeaux-Passerelle,Bordeaux,-0.5499557515726141,44.833974166318214
La Chapelle-d'Ambès,Ambès,-0.5484228296298366,45.00496338992943
Messei,Messei,-0.5483185131643901,48.70814129235049
Villenave-d'Ornon,Villenave-d'Ornon,-0.5474845411037581,44.76865260947629
Coulon,Coulon,-0.5473725712891857,46.3419737049332
Escou,Escou,-0.5434987693771677,43.175479040958024
Bordeaux-Bénauge,Bordeaux,-0.5426557963777523,44.84114540799859
Bordeaux-Bénauge,Floirac,-0.5416160703412023,44.84203392958489
Bordeaux-Bastide,Lormont,-0.5389691463268445,44.859147955141346
Cadaujac,Cadaujac,-0.5379236890848973,44.75198423836627
Lormont,Lormont,-0.5368913846882009,44.86772489753667
Frontenay-Rohan,Frontenay-Rohan-Rohan,-0.5366231539671205,46.258803634018
Mauco-Benquet,Haut-Mauco,-0.5352626663254663,43.832672646214625
St-Hilaire-Brizambourg,St-Hilaire-de-Villefranche,-0.5348621341976271,45.850163946574924
Cenon,Lormont,-0.5336577848979648,44.85937087648387
Ste-Eulalie-Carbon-Blanc,Ste-Eulalie,-0.5336554984382155,44.85937296087297
Cenon Halte,Cenon,-0.5336538124911667,44.85736571467083
La Grave-d'Ambarès-Gare-Inférieure,Ambarès-et-Lagrave,-0.5336537284797577,44.85937457458702
Cubzac-les-Ponts,Cubzac-les-Ponts,-0.5336518052033297,44.85937632927127
St-André-de-Cubzac,St-André-de-Cubzac,-0.5336507758244066,44.85937726780207
Aubie-St-Antoine,Aubie-et-Espessas,-0.5336494636861986,44.8593784649819
Gauriaguet,Gauriaguet,-0.5336476290066104,44.8593801375353
Cavignac,Cavignac,-0.5336452167285064,44.859382336783845
St-Mariens-St-Yzan,St-Yzan-de-Soudiac,-0.5336436960454118,44.85938372355725
Bussac,Bussac-Forêt,-0.533640277225948,44.859386841683026
Montendre,Montendre,-0.5336371087768449,44.859389730129635
Tugeras-Chartuzac,Tugéras-St-Maurice,-0.5336338181902839,44.85939273151613
Fontaines-d'Ozillac,Fontaines-d'Ozillac,-0.5336320099151498,44.85939438069723
Jonzac,Jonzac,-0.5336288798371664,44.85939723457568
Clion-sur-Seugne,Clion,-0.5336262723004658,44.85939961308056
Mosnac-sur-Seugne,Mosnac,-0.5336247994821827,44.85940095506975
Fléac-sur-Seugne,Fléac-sur-Seugne,-0.5336234214141359,44.85940221202842
Pons,Pons,-0.5336212608261645,44.8594041824566
St-Seurin-Lijardières,St-Seurin-de-Palenne,-0.5336192188079775,44.859406043663355
Montils-Colombiers,Montils,-0.5336179617821427,44.85940719042061
Cenon,Cenon,-0.5336091611419809,44.855856098578435
Angers-Maître-École,Angers,-0.5324187644678151,47.46692553564868
Bassens-Appontements,Bassens,-0.5309965940376361,44.88477639840178
La Souys,Floirac,-0.5291938955294634,44.830493006251785
Asnières-la-Giraud,Asnières-la-Giraud,-0.5289201636970412,45.88891204773521
Beillant,St-Sever-de-Saintonge,-0.5278869036227065,45.69660188350584
Chaniers,Chaniers,-0.5278823533119102,45.696608587240384
Grez-en-Bouère,Grez-en-Bouère,-0.5242805457799455,47.879255704256366
Pont-Érambourg,St-Pierre-du-Regard,-0.5241696131087112,48.84991890898014
Voultegon,Voultegon,-0.5235744481605741,46.92239357751011
Angers-St-Serge,Angers,-0.5230590247754713,47.498794691277546
Bassens,Bassens,-0.5224405111799664,44.901397388496285
Écouflant,Écouflant,-0.5196123455924955,47.50367740358306
St-Denis-du-Pin,St-Denis-du-Pin,-0.5180735254056493,45.99332381288284
Canfranc-Frontière,Canfranc,-0.5146837259168324,42.7518551539314
St-Liguaire,Niort,-0.5141161707226017,46.32195966348512
Villeneuve-la-Comtesse,Villeneuve-la-Comtesse,-0.5130117503861215,46.09871488224444
Bretteville-Norrey,St-Manvieu-Norrey,-0.5119754707402413,49.20325790205075
St-Jean-d'Angély,St-Jean-d'Angély,-0.5097452691905225,45.940801704701826
St-Christoly-de-Blaye,St-Christoly-de-Blaye,-0.5078230915346935,45.14020882248951
Ogeu-les-Bains,Ogeu-les-Bains,-0.5074446160920447,43.15387465751689
St-Symphorien (Deux-Sèvres),St-Symphorien,-0.5071396668115792,46.27522647626161
La Paperie,St-Barthélemy-d'Anjou,-0.506051410379318,47.4625771008721
St-Médard-d'Eyrans,St-Médard-d'Eyrans,-0.5043159343500676,44.71568428241115
Mont-de-Marsan,St-Pierre-du-Mont,-0.5041215859864592,43.884703925347225
Mont-de-Marsan,Mont-de-Marsan,-0.5041214782279964,43.88470393511385
St-Rémy (Calvados),St-Rémy,-0.5033731966745237,48.94160591686763
La Pyramide,Les Ponts-de-Cé,-0.5031996257036713,47.44150684068676
Bressuire,Bressuire,-0.5030180560788763,46.82504964220667
Loulay,Loulay,-0.5016804695342356,46.043441237327784
La Gorp,Ambarès-et-Lagrave,-0.4963732559714469,44.92874552971432
Prissé-la-Charrière,Prissé-la-Charrière,-0.4935033775066854,46.15277067967188
St-Sylvain-Briollay,Villevêque,-0.4879882668190744,47.54468594924382
Bouère,Bouère,-0.4862260353348383,47.86868710398667
Clécy-Bourg,St-Rémy,-0.4830778551509028,48.92756005804814
Le Vieux-Briollay,Briollay,-0.4828485317921036,47.5736927162519
Thury-Harcourt,Thury-Harcourt,-0.4813663850807272,48.98932823323862
Neau,Neau,-0.4765305989958475,48.157537510820895
Trélazé,Trélazé,-0.4747393048795612,47.454219462514025
Berjou,Berjou,-0.4717801706565741,48.86334694951586
La Grave-d'Ambarès-Gare-Supérieure,Ambarès-et-Lagrave,-0.4717431308415696,44.93471963191653
Tiercé,Tiercé,-0.4695277707626879,47.617621633630044
Beauvoir-sur-Niort,Beauvoir-sur-Niort,-0.4686828779339735,46.176796548732256
Niort,Niort,-0.4655080280513185,46.30599055020152
La Chapelle-St-Laurent,La Chapelle-St-Laurent,-0.4630483729218754,46.7502334205591
Étriché-Châteauneuf,Étriché,-0.4606192449381066,47.65667677103774
Brives-Chérac,Brives-sur-Charente,-0.4583164754948279,45.67515268723847
Buzy-en-Béarn,Buzy-en-Béarn,-0.4568186338410908,43.14667688631
Buzy-en-Béarn,Buzy,-0.4558393087281902,43.14821823375953
Bellou-en-Houlme,Bellou-en-Houlme,-0.4517947036859062,48.718348110675564
Beautiran,Beautiran,-0.450040817665555,44.701045740128066
Carpiquet,Carpiquet,-0.4480642629114143,49.19102814686557
Le Porage,Daumeray,-0.437510801829515,47.686123675718136
St-Savin-de-Blaye,St-Savin,-0.4373963502829538,45.14616689667422
Lescar,Lescar,-0.43601711243320296,43.32410519020501
Arudy,Arudy,-0.4345611956812238,43.103578055393115
St-Loubès,St-Loubès,-0.4329140300528015,44.922354302210124
Les Agets-St-Brice,St-Brice,-0.428818661149974,47.86620619828592
Haut-de-Gan,Gan,-0.4287092949225601,43.17723087918024
Marigny,Marigny,-0.42836819517337743,46.19907984544713
Portets,Portets,-0.425408145119522,44.69292541617282
Grenade-sur-l'Adour,Grenade-sur-l'Adour,-0.4248870418612461,43.777303771259746
Mutrécy,Clinchamps-sur-Orne,-0.4242348717360671,49.08420195051371
Clessé,Clessé,-0.4229837648420541,46.713688169463644
Aiffres,Aiffres,-0.4227158579621891,46.283386472087145
Les Agets,St-Brice,-0.4214571971326154,47.86433728853118
Couterne,Couterne,-0.4182898909311103,48.51061009626881
Morannes,Morannes,-0.4181228620956466,47.738861073425255
Bagnoles-de-l'Orne-Tessé-la-Madeleine,Bagnoles-de-l'Orne,-0.4138781831308868,48.55864941697636
Le Pérat,Salignac-sur-Charente,-0.4067688365446767,45.67032074452303
Fors,Fors,-0.406650762545785,46.23422955091696
Échiré,Échiré,-0.405351893787269,46.38672461918229
St-Avit,St-Avit,-0.4032199260619657,43.94555549490529
La Bohalle,La Bohalle,-0.40079504767026014,47.43443992670814
Évron,Évron,-0.3969527158821172,48.155693198678215
Arbanats,Arbanats,-0.395514106466555,44.67432083024799
Noirterre,Bressuire,-0.3940173945015796,46.86977837629625
St-Mariens-St-Yzan,St-Mariens-St-Yzan,-0.3922863799732159,45.141684593947865
Gan,Gan,-0.39146276503243,43.234290646158684
St-Sulpice-Izon,St-Sulpice-et-Cameyrac,-0.39114496203670907,44.91412294201807
Feuguerolles-St-André,Feuguerolles-Bully,-0.38887593606458415,49.114066711727894
La Croix-du-Prince,Jurançon,-0.3789912776548105,43.28580945036735
Cherveux,Cherveux,-0.37879698270994544,46.42926196007978
Pincé-Précigné,Précigné,-0.3723230231973642,47.77730393106099
Pau,Pau,-0.3719877238707137,43.29203587894081
Arthenay,Vouillé,-0.3719129744565665,46.33408465609586
Champdeniers-St-Christophe,St-Christophe-sur-Roc,-0.3690395730516413,46.4653306735441
Briouze,Briouze,-0.3676103385195508,48.702014162600285
Caen,Caen,-0.3673933108303907,49.16970208666604
Neuilly-St-Ouen,St-Ouen-le-Brisoult,-0.3641995488828583,48.4914642830587
Merpins,Merpins,-0.3625277405659788,45.67104039877938
Fénery,Fénery,-0.3610157228725771,46.68475797100011
Podensac,Podensac,-0.3589396980012252,44.648851848911114
La Ferté-Macé,La Ferté-Macé,-0.35577406256734495,48.595538838740794
Lonlay-le-Tesson,Lonlay-le-Tesson,-0.350385821797491,48.64314840830603
Sablé,Sablé-sur-Sarthe,-0.34206555962085644,47.841908163914006
Cérons,Cérons,-0.3408297352976037,44.632159173017854
Cognac,Cognac,-0.32591422005896703,45.68454005699418
Roquefort (Landes),Roquefort,-0.32504553826493954,44.039325246507865
Barsac,Barsac,-0.3206769431698951,44.60396200555292
St-Mathurin,St-Mathurin-sur-Loire,-0.31808567010658223,47.41221841786761
Cazères-sur-l'Adour,Cazères-sur-l'Adour,-0.31655869879081033,43.765352109700444
Vayres,Vayres,-0.3161215753838844,44.896620816943845
Luché,Luché-Thouarsais,-0.31524819274142296,46.90793753335298
Chattemoue,Javron-les-Chapelles,-0.3117459363723803,48.41357145085682
Mazières-Verruyes,Verruyes,-0.3078816803552329,46.53304788280817
Bedenac,Bedenac,-0.3060102492591191,45.16844975276393
Preignac,Preignac,-0.30233166813100393,44.57831945261782
St-Aignan-de-Couptrain,St-Aignan-de-Couptrain,-0.2992730767897946,48.47253717174747
La Crèche,La Crèche,-0.2962273833156853,46.3605230135639
Assat,Assat,-0.2948879900153876,43.25431105200619
Voutré,Voutré,-0.2923145040584849,48.1340285959216
Coulonges-Thouarsais,Luché-Thouarsais,-0.28722844511675266,46.9199621335983
St-Pardoux,St-Pardoux,-0.2872027683742929,46.567889656390754
Lapouyade,Lapouyade,-0.2832422838868465,45.075466890052205
Juigné-sur-Sarthe,Juigné-sur-Sarthe,-0.2820681657042393,47.871289872682254
La Chapelle-du-Chêne,Vion,-0.2804864419791509,47.812124215798384
Arveyres,Arveyres,-0.28045546821113176,44.888126175712785
La Ménitré,La Ménitré,-0.2759829988423748,47.39730385204992
Fromentel,Les Yveteaux,-0.26834522761663515,48.70846548296233
Boeil-Bezing,Boeil-Bezing,-0.2672059588453436,43.23004657020774
Frénouville-Cagny,Frénouville,-0.2601078119282554,49.14114275295679
Aire-sur-l'Adour,Aire-sur-l'Adour,-0.2563440521102989,43.70723877584073
Ste-Néomaye,Ste-Néomaye,-0.25621031477074435,46.37598637550168
Langon,Langon,-0.2556439867634756,44.55546709832232
Chevanceaux,Chevanceaux,-0.2530891199021126,45.32276955297782
Gensac-la-Pallue,Gensac-la-Pallue,-0.2505506767655781,45.65923090057697
Coarraze-Nay,Coarraze,-0.24174989960024856,43.18160567878865
Chantillac,Chantillac,-0.2399038593648442,45.36470699888361
Parthenay,Parthenay,-0.2394232327068131,46.6469941564911
Libourne,Libourne,-0.2359792104779641,44.915671649178236
Barcelonne-du-Gers,Aire-sur-l'Adour,-0.2343325739093459,43.7041023132065
St-Jean-de-Thouars,St-Jean-de-Thouars,-0.23053209880723455,46.94594078538083
St-Macaire,St-Macaire,-0.22697050676986685,44.56850752642389
Clérac-Charente,Clérac,-0.22578904217144796,45.19132375598026
St-Varent,St-Varent,-0.2241489872279608,46.88931062006557
Les Rosiers-sur-Loire,Les Rosiers-sur-Loire,-0.22017678853219672,47.362323593512656
Bourg (Charente),Bourg-Charente,-0.2176786342771745,45.6582788375493
Orignolles-Montguyon,Orignolles,-0.21387808161573724,45.236679418732116
Gourge,Gourgé,-0.21025100131590932,46.73311135715998
Thouars,Thouars,-0.2074302884690577,46.98498345202708
Pré-en-Pail,Pré-en-Pail,-0.20438401297763573,48.45791108441943
Avoise,Avoise,-0.20313359896917801,47.87278544406794
St-Maixent (Deux-Sèvres),St-Martin-de-St-Maixent,-0.20112448057779309,46.40649034311193
Rouessé-Vassé,Rouessé-Vassé,-0.2000933325528668,48.16026022184939
Montaut-Bétharram,Montaut,-0.19804491903785326,43.1265554572465
St-Denis-de-Pile,St-Denis-de-Pile,-0.19795164441632807,44.97850876383456
Guitres,Guîtres,-0.19732024873781454,45.03794309470171
St-Pierre-d'Aurillac,St-Pierre-d'Aurillac,-0.18754765447423416,44.57521874160932
Moult-Argences,Moult,-0.18641434700269816,49.1110822027491
Brion-près-Thouet,Brion-près-Thouet,-0.18498684649665315,47.04867908059225
Baignes-Touvérac,Touvérac,-0.180323038501162,45.43315021590652
St-Clément-des-Levées,St-Clément-des-Levées,-0.17933623180766714,47.33665588482528
Jarnac,Gondeville,-0.1777678298148879,45.67111592821942
St-Loup-Lamairé,St-Loup-Lamairé,-0.1687486876844855,46.780538924770134
Bazouges,Bazouges-sur-le-Loir,-0.1674405748725349,47.691542199462226
St-Pé-de-Bigorre,St-Pé-de-Bigorre,-0.16155651517756406,43.10138731119912
St-Émilion,St-Émilion,-0.15915737249957226,44.88112135214965
La Peyratte,La Peyratte,-0.1584008214552363,46.65838279327063
Montreuil-Bellay,Montreuil-Bellay,-0.14790365168970498,47.12552823580612
St-Martin-de-la-Place,St-Martin-de-la-Place,-0.14645940354194245,47.315970780072135
Airvault-Ville,Airvault,-0.14543202481751505,46.82218375451949
Airvault-Gare,Airvault,-0.14537805380198973,46.80710420309672
Caudrot,Caudrot,-0.1449168431450968,44.5802046553113
St-Germé,St-Germé,-0.14283112985855445,43.68057343534093
Orbe,St-Léger-de-Montbrun,-0.14093976280986142,46.975587520498216
St-Laurent-des-Combes,St-Laurent-des-Combes,-0.13324554230088373,44.87585708328235
St-Même-les-Carrières,St-Même-les-Carrières,-0.13321657074300453,45.655746702767495
Coutras,Coutras,-0.1314047206551098,45.03671730971117
La Mothe-St-Héray,Ste-Eanne,-0.12977427456154828,46.38093567426709
Brion-Jumelles,Brion,-0.12957821850352247,47.459097455723324
Sillé-le-Guillaume,Sillé-le-Guillaume,-0.1288809403596642,48.18166721450334
La Lacelle,Lalacelle,-0.12776045929236124,48.474661447300406
Fresné-la-Mère,Fresné-la-Mère,-0.1243154141976988,48.89023348983253
Écouché,Écouché,-0.12096882611470085,48.71483763705532
Longué,Longué-Jumelles,-0.11393179494375615,47.386894576548464
Verron,La Flèche,-0.11033692758378102,47.71779619780261
Dives-Cabourg,Dives-sur-Mer,-0.10768360318535046,49.28657302870108
Vignats,Vignats,-0.10683543630808467,48.846524967155645
Baugé,Le Vieil-Baugé,-0.1063672246420766,47.53593540690219
Salles,Salles,-0.10100639873351858,46.38803089981292
Dives-sur-Mer-Port-Guillaume,Dives-sur-Mer,-0.1008754079992636,49.29102730893448
Noyen,Noyen-sur-Sarthe,-0.09848226566781336,47.87467624834712
St-Étienne-de-Lisse,St-Étienne-de-Lisse,-0.09845781838659393,44.8686031781593
Couliboeuf,Morteaux-Couliboeuf,-0.09829564495577038,48.92358252889923
Villaines,Villaines-sous-Malicorne,-0.09703107731553774,47.7656522808906
Montabard,Montabard,-0.09620672024750156,48.81617987941231
Argelès-Gazost,Argelès-Gazost,-0.09421837955568996,43.007222158010975
La Flèche,La Flèche,-0.09306422455795603,47.698564743140956
Gironde,Gironde-sur-Dropt,-0.09195378797181693,44.58299090218213
Vendeuvre-Jort,Vendeuvre,-0.0885717404927978,48.97817201289052
Riscle,Riscle,-0.08618791989462013,43.653231708619224
Malicorne,Malicorne-sur-Sarthe,-0.08039698045809908,47.81385429577181
Saumur-Rive-Gauche,Saumur,-0.08004424385221742,47.251222755882026
Houlgate,Houlgate,-0.0771762265211692,49.300022723769246
Mézidon,Mézidon-Canon,-0.07508237251722265,49.07088262274481
Nantilly-Saumur,Saumur,-0.07294243402722785,47.23727615597153
La Ferrière-Thénezay,La Ferrière-en-Parthenay,-0.07225510178873107,46.66335653600253
Nantilly-Saumur,Nantilly-Saumur,-0.07223106117581182,47.238682256111204
Saumur-Rive-Droite,Saumur,-0.07146893047704872,47.26867079324317
Boo-Silhen,Boô-Silhen,-0.07097798533699237,43.0245771617535
Chacé-Varrains,Chacé,-0.06808221892281738,47.217801529151906
Pierrefitte-Nestalas,Pierrefitte-Nestalas,-0.06736169498993387,42.96249152366409
Crissé,Crissé,-0.06561230418524866,48.16794315770506
Clefs-Centre,La Flèche,-0.06470038802787954,47.62614802753458
Vivy,Vivy,-0.06338159347147886,47.331327812715024
Brézé-St-Cyr-en-Bourg,Brézé,-0.05775546455530588,47.18624282519493
Pezé-le-Robert,Pezé-le-Robert,-0.05346543807119482,48.1899956559361
Pas-de-Jeu,Pas-de-Jeu,-0.051744422355602976,46.97400000183541
Pamproux,Pamproux,-0.05172241967996381,46.39980312130991
Châteauneuf-sur-Charente,Châteauneuf-sur-Charente,-0.05014198938921295,45.5998615968412
St-Médard-de-Guizières,St-Médard-de-Guizières,-0.048395764469038684,45.015509528318155
Soum-Pic-du-Jer,Lourdes,-0.045999962263515985,43.08936211990782
Argentan,Argentan,-0.04383463849263168,48.75597443299157
Les Églisottes,Les Églisottes-et-Chalaures,-0.0436101757005662,45.09428905796061
Blou-St-Philbert,Blou,-0.04307563725864103,47.36679977022008
Lourdes,Lourdes,-0.04183557605720427,43.100576605175455
St-Denis-sur-Sarthon,St-Denis-sur-Sarthon,-0.04152514483962455,48.45769881512506
Castillon,Castillon-la-Bataille,-0.04068703933829987,44.85701248338341
St-Pierre-sur-Dives,St-Pierre-sur-Dives,-0.040558107369551885,49.023254393986925
Lugagnan,Lugagnan,-0.04013852940749453,43.06497965816255
La Réole,La Réole,-0.030795563825907063,44.57976680184521
Nogaro,Nogaro,-0.028538194135832924,43.759354876346826
Mézeray,Mézeray,-0.024317004907574147,47.83082695977565
Ossun,Ossun,-0.021273763775482023,43.183398019230566
St-Aigulin-La Roche-Chalais,St-Aigulin,-0.0191920149023156,45.157233330545594
Castelnau-Rivière-Basse,Castelnau-Rivière-Basse,-0.017549713994554204,43.597688667060616
Mosnac (Charente),Mosnac,-0.016990630085913,45.618184738929955
Hères,Hères,-0.016657868996187375,43.54967076336113
Conlie,Conlie,-0.010955510941005655,48.127224276091155
Caussade (Hautes-Pyrénées),Caussade-Rivière,-0.007810575556290079,43.51612750975811
Chalandray,Chalandray,-0.0027979096641538672,46.66450455548419
Moncontour-de-Poitou,Moncontour,-0.002763432657595404,46.88630364410163
St-Seurin-sur-l'Isle,St-Seurin-sur-l'Isle,-0.0019406174141192122,45.01130602928961
Villers-sur-Mer,Villers-sur-Mer,0.01005359715555565,49.315874400700224
Arçay,Arçay,0.010077568566192362,46.97107966410604
Mesnil-Mauger,Le Mesnil-Mauger,0.015840647479250073,49.08567545191374
Lamothe-Montravel,Lamothe-Montravel,0.02152928472459865,44.85378281621925
Juillan,Juillan,0.02159712458653067,43.206262868815834
Sireuil,Sireuil,0.02166157368441968,45.60417297548362
Parcoul-Médillac,Médillac,0.024284493630090886,45.221364150094786
Domfront,Domfront-en-Champagne,0.02615649626639019,48.107760807910026
La Suze,La Suze-sur-Sarthe,0.026439907924540013,47.892398496984995
Martaizé,Martaizé,0.027590736528518227,46.922155398440026
Ségrie-Vernie,Ségrie,0.030523648851383086,48.20483023062274
Fresnay-sur-Sarthe,Fresnay-sur-Sarthe,0.030959517063502112,48.28239883567796
Manciet,Ste-Christie-d'Armagnac,0.032256324093525884,43.7957969938706
Maubourguet,Maubourguet,0.033248341290973836,43.461440919388735
Blonville-sur-Mer-Benerville,Blonville-sur-Mer,0.0354792618712565,49.33133620527307
Vernantes,Vernantes,0.039947641606914365,47.40070582658976
Lonray,Lonrai,0.040462058554627735,48.45210729093198
Rouillé,Rouillé,0.0418964038629684,46.41874977603487
Chalais,Chalais,0.04348890603377216,45.27076524204829
Lamothe-Landerron,Lamothe-Landerron,0.045140578137401806,44.56272133449386
Varennes-sur-Loire,Varennes-sur-Loire,0.0502735703523907,47.2550247639243
Nouilhan,Nouilhan,0.050846029776502426,43.43042928600077
Frontenay-sur-Dive,St-Jean-de-Sauves,0.05114848324288011,46.84913506244298
Thorée-les-Pins,Luché-Pringé,0.05157406032020562,47.691445427212464
Montcaret,Montcaret,0.0627422262528435,44.855049019488796
Bazet-Oursbelille,Oursbelille,0.0632160394686489,43.28945339818647
Vic-Bigorre,Vic-en-Bigorre,0.0634650895101912,43.3889288793136
Soubie,Moulin-Neuf,0.06778674806878203,45.00766023683661
Andrest,Andrest,0.0686000469164716,43.3185100293865
Tarbes,Séméac,0.06950613876239935,43.240305937362955
Pujo,Pujo,0.06957629019137926,43.34674782200771
Ayron-Latillé,Ayron,0.07640323653399553,46.66343833806994
Luché-Pringé,Luché-Pringé,0.07944163473171419,47.69366043667202
Casteljaloux,Casteljaloux,0.07984291504275677,44.31424812518174
Piacé-St-Germain,St-Germain-sur-Sarthe,0.08216430083208566,48.26132188794215
Linières-Bouton,Noyant,0.08284546783159692,47.46015450518317
Loudun,Loudun,0.08292859255922007,47.01615292568143
Trouville-Deauville,Trouville-Deauville,0.08424913258191752,49.35961153422814
Voivres,Voivres-lès-le-Mans,0.08524227235754653,47.93036225071097
Montboyer,Montboyer,0.08916742249499568,45.31247665173807
Séméac-Mercadieu,Tarbes,0.09070546741981098,43.23290822956624
Ste-Bazeille,Ste-Bazeille,0.09299244984381463,44.53251019758875
St-Jean-de-Sauves,St-Jean-de-Sauves,0.09322393572302982,46.83649581446958
Almenêches,Almenêches,0.09575252198513184,48.685977253128605
Ampèrevielle,Séméac,0.09767694690851032,43.22128012502054
Alençon,Alençon,0.09820285224911912,48.43935805136752
Domaine de l'Amirauté,St-Arnoult,0.09923636793159084,49.34009188983109
Soues,Soues,0.10092008954538784,43.20342254938864
La Couronne,La Couronne,0.10137433512624716,45.60489925041258
Salles-Adour,Salles-Adour,0.10227948173377548,43.18811144739251
Vélines,Vélines,0.1036985094616117,44.851934556803826
Bernac-Debat,Bernac-Debat,0.10380805443679504,43.17005003011038
Bouglon,Bouglon,0.10395575588871192,44.388149975080566
La Hutte-Coulombiers,La Hutte-Coulombiers,0.1042616554121717,48.30100235542935
La Hutte-Coulombiers,Coulombiers,0.10574605046187864,48.303313054442256
Vielle-Adour,Vielle-Adour,0.10717790042725787,43.148855061665365
Luxé,Luxé,0.10928479364774514,45.88729558439641
Eauze,Eauze,0.11066714118181446,43.86095377650346
St-Michel-sur-Charente,St-Michel,0.11077878087668323,45.64427015354581
St-Georges-Étival,St-Georges-du-Bois,0.11287301006258806,47.95878275908101
Montgaillard (Hautes-Pyrénées),Montgaillard,0.1145274286638248,43.130046469422595
Lusignan,Cloué,0.11656217611664635,46.43554027887006
Noyant-Méon,Méon,0.12005091441541994,47.50234864681778
Mouthiers (Charente),Mouthiers-sur-Boëme,0.122404968052938,45.55350774134476
Champfleur,Champfleur,0.12247527902596415,48.38796448502266
Samazan,Samazan,0.1241288303520881,44.43175134575658
Le Havre,Le Havre,0.12605841732600767,49.49269563728243
Ordizan,Ordizan,0.12728455193703736,43.107924164678536
Bourg-le-Roi,Chérisay,0.1282722638142548,48.349536644397716
Basses-Sammarcolles,Basses,0.13376133597894194,47.04178849073627
Angoulême,Angoulême,0.13384288154119067,45.64063431669944
Surdon,Le Château-d'Almenêches,0.13454560695140969,48.66501485085704
Vars,Vars,0.13700883581758758,45.7657186252245
Montmoreau,St-Amant,0.13798350150418534,45.398190790013096
La Milesse-La Bazoge,La Milesse,0.13864549994015707,48.0822291456696
Pouzac,Pouzac,0.14117021633561966,43.087800312455336
Canapville-St-Martin,Canapville,0.14200659342527036,49.312685588112004
Vingt-Hanaps,Vingt-Hanaps,0.14488748274187316,48.52105056563535
Vivoin-Beaumont,Vivoin,0.1449085782102719,48.230198991075966
Salles-Moussac,Salles-de-Villefagnan,0.1449492293674486,45.9584216172081
Bagnères-de-Bigorre,Bagnères-de-Bigorre,0.14904398616795606,43.06938760500336
Le Havre-Maritime,Le Havre,0.14995363215683974,49.48137809967644
St-Amant-de-Boixe,St-Amant-de-Boixe,0.15179570639378828,45.80840089963889
St-Antoine-de-Breuilh,St-Antoine-de-Breuilh,0.15186391840583466,44.846694219773454
Port-Boulet,Chouzé-sur-Loire,0.15565051913605304,47.24866027519581
Marmande,Marmande,0.1582907705251247,44.507773904533174
Montpon-Ménestérol,Montpon-Ménestérol,0.15939471755587034,45.0062166181403
Le Havre-Graville (IE),Le Havre,0.1608717995144224,49.499771113159724
Charmant,Charmant,0.16230867226278942,45.498615465703466
Le Lude,Le Lude,0.16322801785015026,47.63884000966755
Sées,Sées,0.16627203608269386,48.59990963412721
Villiers-Vouillé,Villiers,0.16946939124302482,46.67340019764824
Lespouey-Laslades,Lansac,0.17173314838170864,43.217983121180566
Cherance,Chérancé,0.17190957510481325,48.28879860255505
Le Bouchet,La Roche-Rigault,0.17317883257936098,46.96872900737668
Beuxes,Beuxes,0.17681562465589135,47.094333130485275
St-Antoine-Port-Ste-Foy,Port-Ste-Foy-et-Ponchapt,0.17776573833573206,44.843827880772594
Maresché,Maresché,0.18068592432020275,48.198644806047405
Coulombiers,Coulombiers,0.18537918384404792,46.480089605560494
Jacques-Monod-La Demi-Lieue,Montivilliers,0.1859652046169117,49.526999245871345
Meigne-le-Vicomte,Meigné-le-Vicomte,0.1893312173049428,47.51960751752474
Montivilliers,Montivilliers,0.18938905311993248,49.54285747182161
Arnage,Arnage,0.19016838079590168,47.928546912024295
Ruffec,Ruffec,0.1901904330448258,46.03063145415018
Montbizot,Montbizot,0.19091466812483426,48.15133012551761
Teillé,Teillé,0.1915173201534334,48.1813892187838
Harfleur-Halte,Harfleur,0.19217989665721746,49.50601792492922
Pont-l'Évêque,Pont-l'Évêque,0.1922135940657724,49.287087514132644
La Guierche,La Guierche,0.19321777716732252,48.11405392276398
Le Mans,Le Mans,0.19373767827698987,47.994962783340284
La Roche-Clermault,La Roche-Clermault,0.19485458310278606,47.139486399413784
Harfleur,Harfleur,0.19906290934819496,49.513610890297755
Neuville-sur-Sarthe,Neuville-sur-Sarthe,0.19979014704471845,48.07039776072107
Étretat,Étretat,0.21320972844827704,49.70774466379029
Rolleville,Rolleville,0.21620412482811285,49.58159247227933
Laigné-St-Gervais,St-Gervais-en-Belin,0.2171169760623304,47.87408630288999
Voulême,Voulême,0.21747149732498355,46.100021830663316
St-Saviol,St-Saviol,0.2178246354634021,46.14701859092328
Fierville-les-Parcs,Fierville-les-Parcs,0.21862279432559129,49.250909030755615
La Chapelle-sur-Loire,La Chapelle-sur-Loire,0.21864433916432952,47.251256668286956
Nonant-le-Pin,Nonant-le-Pin,0.2198787512891232,48.703756536568214
Bordes-l'Hez,Bordes,0.221085868053118,43.20008446311819
Ruelle,Ruelle-sur-Touvre,0.22134335904864044,45.676344690735036
Ste-Foy-la-Grande,Ste-Foy-la-Grande,0.22148593170599026,44.836746259773435
Le Breuil-en-Auge,Le Breuil-en-Auge,0.22264756524389026,49.23035922647648
Épouville,Épouville,0.22352701184604834,49.56358541381649
Le Grand-Jardin,Lisieux,0.2272916669554864,49.150454545802965
Turretot,Turretot,0.2279429759896024,49.61376612616952
Lisieux,Lisieux,0.23048053513911596,49.13833836091847
Les Mées,Les Mées,0.2305158606787644,48.32005075105123
Épanvilliers,Blanzay,0.2358352100216395,46.22690187897098
Tournay,Tournay,0.23905708698507505,43.18341694148109
Neuville-de-Poitou,Neuville-de-Poitou,0.2431910584098905,46.68084304342275
Neuilly-le-Bisson,Les Ventes-de-Bourse,0.24466048620411995,48.49728325195985
Couhé-Vérac,Ceaux-en-Couhé,0.2449121329928968,46.30679512769685
Le Tanchet-Lublé,Lublé,0.2457176580015959,47.52455144907339
Magnac-Touvre,Touvre,0.24870682091405585,45.6589621441568
Mézin,Mézin,0.24897459704255265,44.05928473340328
Anché-Voulon,Anché,0.2502028499055606,46.349738606158745
Gontaud-Fauguerolles,Fauguerolles,0.2503695550364835,44.44329040890973
Chinon,Chinon,0.2509711322083734,47.162225501099826
St-Laurent-Gainneville,St-Laurent-de-Brèvedent,0.2522736643300085,49.52851378979968
Ozon-Lanespède,Ozon,0.2553697008093578,43.16532003714365
St-Remy-du-Plan,St-Rémy-du-Val,0.2579849241794687,48.34561104194293
Vivonne,Vivonne,0.2651342041865253,46.426482815041005
Mayet,Mayet,0.2659375327441477,47.760085237711976
Aubigné-Racan,Aubigné-Racan,0.2659478759570295,47.687010886028965
Honfleur,La Rivière-St-Sauveur,0.267462630870082,49.42082147176382
Honfleur (IE),La Rivière-St-Sauveur,0.267462630870082,49.42082147176382
Écommoy,Écommoy,0.2690046049818696,47.82451649086021
Criquetot-l'Esneval,Criquetot-l'Esneval,0.27006998111831865,49.64282374163738
La Rivière-St-Sauveur,La Rivière-St-Sauveur,0.2739457641539689,49.405814008724306
Ligré-Rivière,Ligré,0.27416983486078844,47.13795940273944
Beaupouyet,Beaupouyet,0.2789106751196613,45.01710619736011
Virollet-Croutelle,Ligugé,0.2796458120383658,46.516833208504146
Yvré-l'Évêque,Yvré-l'Évêque,0.2796763641775046,48.00767745901311
Le Merlerault,Le Merlerault,0.28331423829434216,48.7025201714651
Les Loges-Vaucottes-sur-Mer,Les Loges,0.2848764096994675,49.70179365565514
Civray-Ville,St-Saviol,0.2888041384434565,46.150398475374224
Villaines-Vezot,Vezot,0.2899005589382291,48.36144776861159
Avanton-Pache,Avanton,0.2933606042824705,46.6620536311199
Lavardac,Lavardac,0.2977143441602022,44.175663330366106
St-Patrice,St-Patrice,0.30973937507330324,47.285528908334065
Le Queroy-Pranzac,Pranzac,0.3131313038000148,45.664690596118916
Tonneins,Tonneins,0.3142444336603296,44.39274596782752
Migné-les-Lourdines,Migné-Auxances,0.3158816632721448,46.64362703832676
Vaas,Vaas,0.3165917840063815,47.67085414116615
Iteuil,Iteuil,0.31691846085491937,46.48421650972457
Quetteville,Quetteville,0.3170880000929604,49.3439685146954
Vianne,Vianne,0.31908224962738985,44.19813168011197
Château-la-Vallière,Couesmes,0.3199350065785653,47.550787635274936
Chenu,Chenu,0.3259293784747298,47.610060605047074
Nicole,Nicole,0.3270101761595993,44.32950587720441
St-Benoît-Rigny,St-Benoît-la-Forêt,0.3280440472018726,47.23211009321074
Froberville-Yport,Froberville,0.3286829353992757,49.71739084545515
Capvern,Capvern,0.329604471903354,43.10350977826029
Étainhus-St-Romain,Étainhus,0.33042269040196004,49.560599400937186
Gardonne,Gardonne,0.3319676389057947,44.834667775010615
Poitiers,Poitiers,0.33278686629322524,46.58236426463122
Ligugé,Ligugé,0.33328677350263824,46.520347253016475
Courtonne-la-Meurdrac,Courtonne-la-Meurdrac,0.3345636209397729,49.12045289440914
Aiguillon,Aiguillon,0.3350881906632269,44.29876017586198
St-Benoît (Vienne),St-Benoît,0.3350885257255022,46.54632064802218
Nérac,Nérac,0.3352181004353381,44.131410917952344
Champagné,Champagné,0.33603471727525364,48.01999207493511
Beuzeville (Eure),Beuzeville,0.35176774848308784,49.340842485653035
Mussidan,Mussidan,0.3539078860339317,45.03454481999586
Virville-Manneville,Virville,0.3541972127617274,49.58355832050525
Le Mesle-sur-Sarthe,Coulonges-sur-Sarthe,0.35426395624523155,48.51549462301665
Chazelles,Chazelles,0.35833614707634204,45.64561259121179
Grand-Pont-Preuilly,Chasseneuil-du-Poitou,0.35988001829088184,46.63457277181513
Arreau,Arreau,0.3605096187583738,42.907430975157055
Rivarennes-Quinçay,Rivarennes,0.36065818706277614,47.267236325416576
Planches,Échauffour,0.361042598862433,48.706349230648726
Moncrabeau,Moncrabeau,0.3612964978230109,44.03165282105133
Labarthe-Avezac,Avezac-Prat-Lahitte,0.3616622047142317,43.08230065073437
Goderville,Goderville,0.36297295622890174,49.64966372965544
Condom,Condom,0.3654913000573803,43.96216203659582
St-Mars-la-Brière,St-Mars-la-Brière,0.3657647873267125,48.028684482990606
Lortet,Lortet,0.3663197765501948,43.046760803069326
Lasserre,Moncrabeau,0.3671882973412719,44.06555400760665
Chasseneuil (Vienne),Chasseneuil-du-Poitou,0.37290077344052003,46.65191701703638
Fécamp,Fécamp,0.3739058314688636,49.75946346406018
Hèches,Hèches,0.37546532960955936,43.02241809963599
St-Aubin-la-Bruère,La Bruère-sur-Loir,0.3765658113969113,47.653109930376864
Rebouc,Hèches,0.3770944566809689,43.001282694895636
Futuroscope,Chasseneuil-du-Poitou,0.3781034066815456,46.66982364367344
Sarrancolin,Sarrancolin,0.3793392263315028,42.968837285005186
Lamonzie-St-Martin,Lamonzie-St-Martin,0.380488706369801,44.84343644898371
Jaunay-Clan,Jaunay-Clan,0.3818538820759252,46.68198061597681
Lannemezan,Lannemezan,0.3875876109403353,43.11403790015381
Port-Ste-Marie,Port-Ste-Marie,0.3885457166351385,44.25046451442933
La Rochefoucauld,La Rochefoucauld,0.3898448151260101,45.74024192809468
Les Ifs,Tourville-les-Ifs,0.3899830435837955,49.70119372237637
Les Ifs,Les Ifs,0.39111929017674624,49.70280043613735
Cheille,Cheillé,0.3929183231835718,47.269301198107975
Fécamp-St-Ouen,Fécamp,0.4008434416503097,49.752627923549966
Charroux,Charroux,0.4029432166509182,46.149227044482146
Taponnat,Taponnat-Fleurignac,0.4041940981577449,45.77328798219844
Montfort-le-Gesnois,Montfort-le-Gesnois,0.4065333799511941,48.040585156941496
Grainville-Ymauville,Grainville-Ymauville,0.4071318149633255,49.656206805240316
Langeais,Langeais,0.4106773084498833,47.32400490229439
Mignaloux-Nouaillé,Mignaloux-Beauvoir,0.4118057146384928,46.526050010608685
Prigonrieux-La Force,Prigonrieux,0.4132562539744202,44.85100254600049
Château-du-Loir,Château-du-Loir,0.4149695559733914,47.68314934322735
Bréauté-Beuzeville,Bréauté,0.4169155302282949,49.60345308049904
Douzillac,Douzillac,0.4170675090184164,45.0793323121456
Bréauté-Beuzeville,Bréauté-Beuzeville,0.4180618565412028,49.603715487206706
St-Mards-de-Fresne,St-Mards-de-Fresne,0.4207067930643431,49.07026944072157
Dissay,Dissay,0.4215116453619497,46.704008629275634
St-Maclou,St-Maclou,0.4218066104012858,49.353657514134454
Ste-Gauburge,Ste-Gauburge-Ste-Colombe,0.42889187820658986,48.7174251331736
La Mesnière,La Mesnière,0.430143759513853,48.52225505725863
Cantaous-Tuzaguet,Cantaous,0.4400677562596508,43.09943906171247
La Tricherie,Beaumont,0.44061323762538457,46.728653726742536
Marthon,Marthon,0.4437660590070836,45.618033625304015
Neuvic,Neuvic,0.4452123846229048,45.09983757266865
Azay-le-Rideau,Azay-le-Rideau,0.4468812905689877,47.26528551119567
Colleville-Ste-Hélène,Colleville,0.4534814616633836,49.74788129001654
Chasseneuil-sur-Bonnieure,Chasseneuil-sur-Bonnieure,0.4536045541269451,45.82423485993355
Fourtic,Clermont-Dessous,0.4564067130276877,44.24149395725444
Nieuil-l'Espoir,Nieuil-l'Espoir,0.4604346418283576,46.49769828207293
Cinq-Mars,Cinq-Mars-la-Pile,0.4604522611395114,47.345053921069486
Bolbec-Ville,Bolbec,0.4673163667144049,49.57802521362871
Toutainville,Toutainville,0.4681667700492339,49.36287233879038
Dissay-sous-Courcillon,Dissay-sous-Courcillon,0.4723855532150262,47.661213040009926
Marçon-Vouvray,Vouvray-sur-Loir,0.4758543465117884,47.70646585945164
Vallères,Vallères,0.4771670260884805,47.29465052572724
St-Paterne,St-Paterne-Racan,0.4783412446354061,47.604152066132535
Gruchet-St-Antoine (PK),St-Antoine-la-Forêt,0.4821150117238774,49.55418906848668
Bolbec-Nointot,Bolbec,0.4849867117481938,49.59160906018728
Connerré-Beillé,Beillé,0.4869666639783437,48.07384329531561
Mauprevoir,Mauprévoir,0.4888506734868466,46.184701687319965
Bergerac,Bergerac,0.4892559426484137,44.857181326922856
St-Léon-sur-l'Isle,St-Léon-sur-l'Isle,0.4923937365761386,45.123254805200325
Trogues,Trogues,0.4943772398306006,47.112108470617606
St-Hilaire-Beaufai,Beaufai,0.4945639871867162,48.73529588107911
St-Laurent-St-Paul,St-Laurent-de-Neste,0.4945873907801105,43.084047747032116
Naintré-les-Barres,Naintré,0.4961885277948176,46.75941618239307
St-Julien-L'Ars,St-Julien-l'Ars,0.5084208637333149,46.56107023994829
Valmont,Valmont,0.5091227369972972,49.74692416958572
Chahaignes,Chahaignes,0.513929803784033,47.733528277043256
Pont-Audemer,Pont-Audemer,0.5146419537500801,49.35199663574239
St-Hilaire (Lot-et-Garonne),St-Hilaire-de-Lusignan,0.5182663569209102,44.235737314618966
Fleure,Fleuré,0.5199119016008582,46.46715811687778
St-Astier,St-Astier,0.5231277897081873,45.1389632863265
Nerpuy,Naintré,0.5256711466696894,46.78345981424409
Lillebonne,Lillebonne,0.5282595331103725,49.520161371428536
Châtellerault-Châteauneuf,Châtellerault,0.5286096539744223,46.81978098112383
St-Martin-Usson,St-Martin-l'Ars,0.529680913255127,46.220471102845686
Druye,Druye,0.5338225583763413,47.306362011285934
Pouzay,Pouzay,0.5376995573741321,47.083065865891854
Savonnières,Savonnières,0.5440984949505759,47.360626678129336
Fontafie,Nieuil,0.545455174075626,45.866933730810224
Châtellerault,Châtellerault,0.5467699058394108,46.82647071088249
Mortagne-au-Perche,St-Langis-lès-Mortagne,0.5489806881944688,48.5098067144217
Rai-Aube,Aube,0.5537225428689114,48.74376298436858
Colayrac,Colayrac-St-Cirq,0.5587892633996748,44.22775354561451
Gravenchon-Port-Jérome,Notre-Dame-de-Gravenchon,0.5588620527203657,49.483980893277966
Jardres,Jardres,0.5603202832223879,46.563531085113475
Nouatre-Maillé,Maillé,0.5646099045391351,47.04463356370096
Neuillé-Pont-Pierre,Neuillé-Pont-Pierre,0.5649102898069096,47.55801500355749
Ingrandes-sur-Vienne,Ingrandes,0.569280649014913,46.874679817396526
Sceaux-Boësse,Boëssé-le-Sec,0.5724531971322482,48.12233132668593
Montréjeau-Gourdan-Polignan,Gourdan-Polignan,0.5733641926449461,43.078076115326034
Ourville,Ourville-en-Caux,0.5764797080007185,49.73446529855006
Ste-Maure-Noyant,Noyant-de-Touraine,0.5770567509073571,47.1112752555605
Montréjeau-Gourdan-Polignan,Montréjeau-Gourdan-Polignan,0.5782764974091962,43.07695917566185
Roumazières-Loubert,Roumazières-Loubert,0.5788109318824696,45.88935397042813
Corneville-St-Paul,Pont-Audemer,0.5808748715028598,49.33141227132358
St-Ustre,Ingrandes,0.5809207850343885,46.891089991645835
Creysse-Mouleydier,Creysse,0.581483078010683,44.85543156150122
La Chartre-sur-le-Loir,La Chartre-sur-le-Loir,0.5819290793774801,47.740608360158774
Maillé,Maillé,0.5831654391788128,47.053166423024884
Castex-Lectourois,Castéra-Lectourois,0.5917016208102768,44.001736568250536
Ste-Livrade-sur-Lot,Ste-Livrade-sur-Lot,0.5918292292096496,44.395614976214
Labroquère-St-Bertrand-de-Comminges,Labroquère,0.59300144760553,43.04354793602428
Bernay,Bernay,0.5958065721583345,49.08703884113328
Luchon,Bagnères-de-Luchon,0.5967364022377681,42.79727275671695
Auch,Auch,0.5969007206138068,43.64761708070071
Foucart-Alvimare,Foucart,0.5970407744472859,49.608292676946824
St-Genouph,St-Genouph,0.5970704679846622,47.37092513372286
Port-de-Piles,Port-de-Piles,0.5977161629707917,47.00545089066897
Port-de-Piles,La Celle-St-Avant,0.5986678528765997,47.010262053940245
Razac,Razac-sur-l'Isle,0.5993726071837367,45.16606185379192
Antignac (Haute-Garonne),Antignac,0.6010060216839381,42.82773701196367
Cier-de-Luchon,Cier-de-Luchon,0.6021086142861196,42.85303719683858
Les Ormes-sur-Vienne,Les Ormes,0.607910383068543,46.97175637138565
Lhommaizé,Lhommaizé,0.6087652260413744,46.45063836762797
Dangé,Dangé-St-Romain,0.6088106604560757,46.93787613584683
Loures-Barbazan,Loures-Barousse,0.6105286482108122,43.021095025129
Lège,Lège,0.6131632648050266,42.876237532278864
Ballan,Joué-lès-Tours,0.6146432991039702,47.33583296585494
Lectoure,Lectoure,0.6152276593494466,43.93094654911594
Condé-sur-Risle,Condé-sur-Risle,0.6161994590783073,49.31465804941243
St-Antoine-du-Rocher,St-Antoine-du-Rocher,0.6165367506341984,47.503885064078
Ste-Christie,Ste-Christie,0.6184063184375501,43.75788137792388
Grainville-la-Teinturière,Grainville-la-Teinturière,0.6199925032343111,49.76178499108642
L'Aigle,L'Aigle,0.62003780324875,48.7665705811492
Agen,Agen,0.6210483728002917,44.20834108990013
Rambert-Preignan,Preignan,0.6233265878651089,43.71762245510147
La Cave,Marsac-sur-l'Isle,0.6277430999060847,45.183867433891294
Manot,Manot,0.6297058566981056,45.94852694741621
Saléchan-Siradan,Saléchan,0.6313141020253022,42.96291183671216
Chauvigny,Chauvigny,0.6334707048309359,46.57165062208539
Villeperdue,Villeperdue,0.6336806393875412,47.20196092222494
Montestruc-sur-Gers,Montestruc-sur-Gers,0.6338993905716007,43.79532253655192
Appeville,Condé-sur-Risle,0.6355844049750166,49.305629793465776
Cany,Cany-Barville,0.6367230688247343,49.7830457714542
Mauves-Corbon,Corbon,0.6389802955745449,48.449566851980755
La Ferté-Bernard,La Ferté-Bernard,0.6391218838092982,48.18646346433232
Ruillé-Poncé,Ruillé-sur-Loir,0.640570172291565,47.7551977854281
La Membrolle-sur-Choisille,St-Cyr-sur-Loire,0.6409029884085768,47.431182574101975
Ansac,Ansac-sur-Vienne,0.6426695832782937,45.99095032193597
Mettray,Mettray,0.6439175243930029,47.4461391061983
Fondettes-St-Cyr,Fondettes,0.6461492849812142,47.39871741871915
St-Capraise-de-Lalinde,St-Capraise-de-Lalinde,0.6474113534529786,44.843994410053156
Fronsac,Fronsac,0.6480102803945325,42.94601324160817
Martres-de-Rivière,Martres-de-Rivière,0.6493412192887027,43.08217146458623
Astaffort,Astaffort,0.6512019662756888,44.06680036300393
Marignac-St-Béat,Marignac,0.6519831922711365,42.915465747273934
La Douzillère,Joué-lès-Tours,0.6530013866824887,47.338661406210925
Monts,Monts,0.6547572460901697,47.28172305229394
Fleurance,Fleurance,0.6563858583662173,43.85237062575308
Montfort-St-Philbert,Montfort-sur-Risle,0.6596901176302253,49.29367311477142
Bon-Encontre,Boé,0.6610672361831361,44.174579282235364
Marsac (Dordogne),Marsac-sur-l'Isle,0.6624718709984716,45.18602827912528
Allouville-Bellefosse,Allouville-Bellefosse,0.6639059965213167,49.61419754161722
La Rabaterie,Joué-lès-Tours,0.6642231069111226,47.331937873207494
Layrac,Layrac,0.6644942666227015,44.131678762925205
Civaux,Civaux,0.665006721662631,46.43299694022403
Joué-lès-Tours,Joué-lès-Tours,0.6657807097214471,47.354468738077536
Exideuil-sur-Vienne,Exideuil,0.6669305868889828,45.88624989508712
Chancelade,Chancelade,0.6678933019652142,45.21779956772417
Pont-du-Casse,Pont-du-Casse,0.6759330928162438,44.232824610550935
Glos-Montfort,Glos-sur-Risle,0.6829150130851616,49.27128952170587
Château-l'Évêque,Château-l'Évêque,0.6882784125447157,45.24450264334011
Pont-de-Braye,Lavenay,0.6904035249739051,47.770038730801495
St-Martin-d'Écublei,St-Sulpice-sur-Risle,0.6904444290853783,48.779447249862564
Pont-Authou,Authou,0.6925143963954615,49.23968343500921
Le Theil-La Rouge,La Rouge,0.6943077561215275,48.267274099278275
La Haye-Descartes,Descartes,0.6945908226737714,46.974705337124206
Tours,Tours,0.6947221708145892,47.38823086739208
Ocqueville,Ocqueville,0.6974482341767533,49.80153825530224
Néville,Néville,0.6993408513287426,49.82001680749365
Lafox,Lafox,0.699485710240538,44.16458023160565
Villeneuve-sur-Lot,Villeneuve-sur-Lot,0.7019419931634989,44.40144664270483
Périgueux,Périgueux,0.7019478298390961,45.194299311099364
Couze,Lalinde,0.7039801334874889,44.83641138768512
St-Vaast-Bosville,St-Vaast-Dieppedalle,0.7048682468799548,49.759946405464646
Boissy-Maison-Maugis,Maison-Maugis,0.7053515576045165,48.44000439793946
Notre-Dame-d'Oé,Notre-Dame-d'Oé,0.7069732700191541,47.4596179160804
Lavenay,Lavenay,0.7114334138285858,47.78752054405017
Brionne,Brionne,0.7114688242859413,49.19643355316075
St-Valéry-en-Caux,St-Valéry-en-Caux,0.7131092604517792,49.8610654958855
Chabanais,Chabanais,0.7169108576418544,45.87246057533029
Marsan,Marsan,0.7185326365025335,43.66268632823843
Lussac-les-Châteaux,Lussac-les-Châteaux,0.7185702473385802,46.405233047183636
Serquigny,Serquigny,0.7186822676509318,49.10807248523253
Montbazon,Montbazon,0.7214631423181357,47.29171275641739
St-Pierre-des-Corps,St-Pierre-des-Corps,0.7223597027144459,47.38502486131696
La Rivière-Thibouville,Fontaine-la-Soret,0.7224231302340101,49.14666625176003
Abilly,Abilly,0.7245651598057862,46.938450338574114
St-Gaudens,St-Gaudens,0.7287744982135916,43.104763714489685
Périgueux-St-Georges,Périgueux,0.7336589930910612,45.178326429253104
Veigné,Veigné,0.734442350054996,47.2915030694559
Lalinde,Lalinde,0.7429248246895092,44.839505160996936
Bessé-sur-Braye,Bessé-sur-Braye,0.7477611545177889,47.830217013149536
Agonac,Agonac,0.7487056242939862,45.28659007306428
Laroque,Laroque-Timbaut,0.7497411495615756,44.287500065429036
Yvetot,Yvetot,0.7501274750114086,49.62220857990936
St-Léger-Boissey,St-Léger-du-Gennetey,0.7510003170497815,49.29020328745244
Caudebec-en-Caux-Marchandises,St-Wandrille-Rançon,0.7563331479058616,49.52170006576233
St-Nicolas-St-Romain,St-Romain-le-Noble,0.7607704045419798,44.14757883974357
Remalard-Bellou,Bellou-sur-Huisne,0.7660234846074037,48.42458700760418
Beaumont-le-Roger,Beaumont-le-Roger,0.7728994121383057,49.07417134918096
Sillards,Sillars,0.7730019430509677,46.40999245665631
Doudeville,Harcanville,0.7745942045329691,49.720283992792034
Sauveboeuf,Lalinde,0.7785394023841429,44.84755804101125
Esvres,Esvres,0.7815737596302582,47.2841218778662
La Ville-aux-Dames,La Ville-aux-Dames,0.7873481247569994,47.389444808125106
La Mailleraye-sur-Seine,St-Wandrille-Rançon,0.7878219127656853,49.501434688426755
Hautefage-Auradou,Hautefage-la-Tour,0.789228537978397,44.34383485838941
Aubiet,Aubiet,0.7892990132456751,43.65004416378003
Mauzac,Mauzac-et-Grand-Castang,0.7899851506892608,44.855764301617775
Monnaie,Monnaie,0.7932163791396898,47.498724281711844
Héberville,Héberville,0.7932642907671359,49.78818145817687
Le Grand-Pressigny,Le Grand-Pressigny,0.7935985728919915,46.920170213957064
Penne,Penne-d'Agenais,0.7991167774007698,44.37674412103539
Savigny-sur-Braye (Centre),Savigny-sur-Braye,0.7994082952432086,47.88196438092813
Ligueux,Ligueux,0.8003576381798236,45.313063978421326
Bourth,Bourth,0.8046076674771012,48.765711871348856
Troo,Montoire-sur-le-Loir,0.804644502984292,47.77657546630064
Niversac,St-Laurent-sur-Manoire,0.8083079815010787,45.13838581046404
Nogent-le-Rotrou,Nogent-le-Rotrou,0.8101671966021508,48.32568335262979
Saillat-Chassenon,Saillat-sur-Vienne,0.8117416754798872,45.86954035138914
Montlouis,Montlouis-sur-Loire,0.8169055503728861,47.39100335147634
Veretz-Montlouis,Montlouis-sur-Loire,0.819956989593012,47.371455942256965
Vouvray,Vouvray,0.8216258321943459,47.39768625317272
Lamagistère,Lamagistère,0.8256384913411491,44.12676987497076
Rochechouart,Rochechouart,0.8289502986331071,45.830098511651194
Trémolat,Trémolat,0.8304163450328206,44.86233058843828
Yainville-Jumièges,Yainville,0.8307706155196922,49.45989091297785
Grémonville,Grémonville,0.8332231340401591,49.652234422553185
Cormery,Cormery,0.833829755804239,47.26235561020565
Bourgtheroulde-Thuit-Hébert,Thuit-Hébert,0.8382309340432144,49.317574268561536
Sargé-sur-Braye,Sargé-sur-Braye,0.8428355228663486,47.91914622099148
Sargé-sur-Braye-Centre,Sargé-sur-Braye,0.8433008525461221,47.920054404222356
St-Pierre-le-Viger-Fontaine-le-Dun,St-Pierre-le-Viger,0.844717727716975,49.823963710631894
Motteville,Motteville,0.8456854522246875,49.636959111997996
Condé-sur-Huisne,Condé-sur-Huisne,0.8489044957410873,48.3835959133747
Labarthe-Inard,Labarthe-Inard,0.8521202230575932,43.10495985564873
Golfech,Golfech,0.8536376978396543,44.11621266735794
Romilly-la-Puthenaye,Romilly-la-Puthenaye,0.8554381277758162,49.003580561735056
Chaumussay,Chaumussay,0.8558127511823671,46.87213428518222
Vernou-les-Varennes,Vernou-sur-Brenne,0.8558634018196802,47.405359238239406
St-Pierre-de-Chignac,Ste-Marie-de-Chignac,0.8570806009384597,45.12347104277347
Les Versannes,La Douze,0.8577443165523323,45.08843047286084
Azay-sur-Cher,Montlouis-sur-Loire,0.8600844606454662,47.365140092171224
Négrondes,Négrondes,0.8612413049077472,45.3458918137541
Crotelles,Villedômer,0.8642247031975436,47.529276095899725
Gimont-Cahuzac,Gimont,0.8675837143867445,43.63309623244655
Courçay-Tauxigny,Courçay,0.867626446644848,47.237833271278326
Alles-sur-Dordogne,Alles-sur-Dordogne,0.8690551134656941,44.86510405762553
Montoire-sur-le-Loir,Montoire-sur-le-Loir,0.8698109565129883,47.75806574375953
Oradour-sur-Vayres,Oradour-sur-Vayres,0.8711928195257816,45.72870685245314
Duclair,Duclair,0.8732094163516324,49.4831948414388
Montmorillon,Montmorillon,0.8737930550017837,46.41736546461753
Trentels-Ladignac,Trentels,0.8850326887211468,44.44296984970271
Valence-d'Agen,Valence,0.8916521333402729,44.11176905723221
Mondoubleau,Mondoubleau,0.8923375206239952,47.98426119421902
Bretoncelles,Bretoncelles,0.8924610680299124,48.43275436557967
Noizay,Noizay,0.8964153999282695,47.409731141772575
Champagnac,Champagnac-la-Rivière,0.8969640915514188,45.719283809720565
La Gélie,La Douze,0.8972325167863836,45.04253597366613
St-Junien,St-Junien,0.9004046556142662,45.881378621124384
Reignac,Reignac-sur-Indre,0.9012977773197164,47.21779355348433
Château-Renault,Château-Renault,0.901441463891866,47.58783274114799
Le Buisson,Le Buisson,0.9021428664885216,44.84877181093326
St-Martin-le-Beau,St-Martin-le-Beau,0.9058591761016436,47.3550756105793
Le Buisson,Le Buisson-de-Cadouin,0.9082709322736132,44.8470490876586
Saussay-St-Martin,Saussay,0.912057857899242,49.64157211973012
Lestelle,Lestelle-de-St-Martory,0.9124236126036998,43.118540272208435
Luneray,Luneray,0.9124263297219412,49.822660436370924
Thiviers,Thiviers,0.9161217388129468,45.408720143186905
Le Paulu,St-Paër,0.9168167835095592,49.51585828684482
Forêt-de-la-Londe (PK),La Londe,0.9172336255677316,49.33458150634657
Milhac-d'Auberoche,St-Crépin-d'Auberoche,0.9181114521343527,45.1290033155141
Breteuil,Breteuil,0.9205112454100588,48.83150788915903
Escorneboeuf,Escorneboeuf,0.9253672945951606,43.646920416433154
Preuilly-sur-Claise,Preuilly-sur-Claise,0.9290293782400116,46.849677221589346
Verneuil-sur-Avre,Verneuil-sur-Avre,0.9293261486834166,48.742723179319356
Villers-Écalles,Villers-Écalles,0.9307436879397004,49.52753897239143
Pommevic,Pommevic,0.9316230643345316,44.10233204970312
St-Martory,St-Martory,0.9331701661690202,43.13831934212406
Conches,Conches-en-Ouche,0.9379367014881363,48.96215407348989
Monsempron-Libos,Monsempron-Libos,0.9412460698936364,44.48651614118785
Dierre,Dierre,0.9426488769778824,47.34769362302455
Le Bugue,Le Bugue,0.9427867418795364,44.905806291346366
Monsempron-Libos,Nicole,0.9434452252127062,44.48811150501303
Cuzorn,Cuzorn,0.9440645562047164,44.537407914546
St-Antoine-d'Auberoche,St-Antoine-d'Auberoche,0.945808608036346,45.142791520284604
Pavilly-Ville,Pavilly,0.9504110522658341,49.565229729940214
Pavilly-Station,Pavilly,0.9505499447413559,49.56401844613743
Barentin-Ville,Barentin,0.950663871811096,49.54187931811772
Mavaleix,Chalais,0.951895470119194,45.50626090486765
Corgnac-sur-l'Isle,Corgnac-sur-l'Isle,0.9520315377520948,45.370331394327756
St-Brice-sur-Vienne,St-Brice-sur-Vienne,0.9522527294532188,45.87811742813138
Champsac,Champsac,0.9522863139548536,45.692364317989046
Villechauve,Villechauve,0.9533932139088814,47.654178147952344
Barentin-Embranchement,Barentin,0.9539727059031916,49.549325337532856
Mauzens-Miremont,Mauzens-et-Miremont,0.9569541143163548,44.977276845645505
Tournon-St-Martin,Tournon-St-Martin,0.9582592650920728,46.73692973710936
Gueures-Brachy,Gueures,0.958452129150298,49.837871937663905
Ouville-la-Rivière,Ouville-la-Rivière,0.9593564687712772,49.86610166034578
His-Mane-Touille,His,0.9608513049914664,43.07624771526207
Salies-du-Salat,Salies-du-Salat,0.9616663843854336,43.10153072428993
Thoré-la-Rochette,Thoré-la-Rochette,0.9624342183288472,47.77550833717594
Ingrandes-Mérigny,Ingrandes,0.9625286743166479,46.60095171312809
Boursay-St-Agil,Boursay,0.9640499598290392,48.01952575504074
Lathus,Lathus-St-Rémy,0.9650373946411605,46.338102890734426
Chambourg,Chambourg-sur-Indre,0.9654243523727002,47.18165119449651
Bossay,Bossay-sur-Claise,0.9673026760061392,46.82803985788275
Fumel,Fumel,0.9690639250993937,44.495717002012064
Mazères-sur-Salat,Mazères-sur-Salat,0.9716108797620616,43.130667921372044
Malause,Malause,0.9716494348442181,44.08808979904511
Boussens,Boussens,0.9718426907815176,43.179176410227
Monferran,Monferran-Savès,0.9724692183582088,43.6163123699769
St-Front-sur-Lémance,St-Front-sur-Lémance,0.9727055526559708,44.574244342655106
La Coquille,La Coquille,0.9744162452795686,45.54069297172124
Chalus,Châlus,0.9755631150128246,45.652007534236155
Limeyrat,Limeyrat,0.9777561219299143,45.156249497455285
La Bouille-Moulineaux,Moulineaux,0.9794115258500252,49.34112398061843
Amboise,Amboise,0.9811448600580964,47.421508738952035
Siorac-en-Périgord,Siorac-en-Périgord,0.9844291205482064,44.81974617484593
Beaumont-de-Lomagne,Beaumont-de-Lomagne,0.9862393223309636,43.878245194437504
Bléré-la-Croix,La Croix-en-Touraine,0.9878429921208728,47.337847248994805
Orival,Orival,0.9924430661056864,49.31835878421374
Loches,Loches,1.0009788847912129,47.13040196262713
Elbeuf-Ville,Elbeuf,1.0042800923994708,49.284128456739744
Thiat-Oradour,Oradour-St-Genest,1.0051263676580338,46.278502752895925
Concremiers,Concremiers,1.005357035953125,46.60001870171778
Les Eyzies,Les Eyzies-de-Tayac-Sireuil,1.0082504108899424,44.94113229605126
Grand-Couronne,Grand-Couronne,1.0092041045540905,49.353362848090725
St-Victurnien,St-Victurnien,1.0097934525379204,45.876681187371034
Elbeuf-St-Aubin,St-Aubin-lès-Elbeuf,1.0104007811696616,49.30276778901842
La Loupe,La Loupe,1.0107432525064246,48.473905075795145
St-Ouen-du-Breuil,St-Ouen-du-Breuil,1.0108132912472092,49.6407701420497
Sauveterre-la-Lémance,Sauveterre-la-Lémance,1.0115845310578682,44.58947576134732
Belvès,Belvès,1.0118864967663226,44.777374908386776
St-Amand-de-Vendôme,St-Amand-Longpré,1.0119738707968045,47.69303595599551
Ajat,Limeyrat,1.012406800228403,45.16472425237826
Perrusson,Perrusson,1.0140204364694685,47.10118387072604
Vendôme-Villiers-sur-Loir,Villiers-sur-Loir,1.01499350380989,47.8094576231871
Martres-Tolosane,Martres-Tolosane,1.0157666461637984,43.1959630914845
Le Got,Mazeyrolles,1.020099702219026,44.68224754056822
Petit-Couronne,Petit-Couronne,1.0234783058048158,49.38221419128025
Fontaine-Simon,Fontaine-Simon,1.02600794555869,48.502551126172506
Bussière-Galant,Bussière-Galant,1.0261401206022458,45.607619726961495
Prat-et-Bonrepaux,Prat-Bonrepaux,1.0270240926783587,43.032548149733095
Sérignac,Sérignac,1.029687807236023,43.90058869483008
Senonches,Senonches,1.0301684262269226,48.55998515862554
Malaunay-Le Houlme,Malaunay-Le Houlme,1.033729594370428,49.522565498069255
La Bonneville-sur-Iton,La Bonneville-sur-Iton,1.0345259092855412,48.987908601825715
St-Pierre-lès-Elbeuf,St-Pierre-lès-Elbeuf,1.0364141440719818,49.26816913310938
Grand-Quevilly,Le Grand-Quevilly,1.0370403587192374,49.411983921897544
Malaunay-Le Houlme,Le Houlme,1.0396956827531814,49.51335751091958
St-Cyprien-en-Dordogne,St-Cyprien,1.043594147913342,44.86332595028344
Civray-de-Touraine,Civray-de-Touraine,1.0459955292151275,47.331170518667534
Clères,Clères,1.0460924532743772,49.632948061013444
Bellac,Bellac,1.0462434288404088,46.125259801498395
Offranville,Offranville,1.0478653679818202,49.86600140549304
Villefranche-du-Périgord,Loubejac,1.0491599546185697,44.62695178117865
Limeray,Limeray,1.0495916649448782,47.44995973202956
Liglet,Liglet,1.0500924211777067,46.51621458749751
Maromme,Notre-Dame-de-Bondeville,1.0508129362948122,49.47995060622689
Le Blanc,Le Blanc,1.0513459188045982,46.629256092837245
Excideuil (Dordogne),Excideuil,1.0523048051179191,45.3396149154485
Petit-Appeville,Offranville,1.0540950051219111,49.896847524071426
Petit-Appeville,Hautot-sur-Mer,1.0545314894485622,49.89667135261439
Tillières,Tillières-sur-Avre,1.0545697076335612,48.76084521157426
Petit-Quevilly,Le Petit-Quevilly,1.0554205620829862,49.42717928143553
Verneuil-St-Germain,Verneuil-sur-Indre,1.0567049150301382,47.0770723382251
St-Hilaire (Indre),St-Hilaire-sur-Benaize,1.0648953828071974,46.567733302825594
Chenonceaux-Chisseaux,Chenonceaux,1.0655586718851668,47.33070612226007
St-Aubin-sur-Scie,St-Aubin-sur-Scie,1.0665772837384753,49.8707884314073
Vendôme,Vendôme,1.067141369546662,47.80203153447201
Thenon,Ajat,1.0689989299512217,45.160018266999685
Montville,Eslettes,1.069874551174672,49.5512072804505
Vendôme,Naveil,1.0714432624173067,47.80265990529335
Droué,Droué,1.072120730092355,48.04354699214503
Larrazet,Sérignac,1.074886843542393,43.92745790060248
Rouen-Orléans,Rouen,1.0749675611750835,49.43699258016749
Blond-Berneuil,Blond,1.0757161071384045,46.06384629681625
Damville,Damville,1.0771711540876232,48.86781177566515
Moissac,Moissac,1.0773874022480605,44.10241148936118
Dieppe,Dieppe,1.0791737236794958,49.913876186251116
Le Dorat,Le Dorat,1.0793586692076786,46.21097510473997
Cazères-sur-Garonne,Cazères,1.082233193226557,43.212734533765506
Anneville-sur-Scie,Anneville-sur-Scie,1.0858631551545044,49.83301279795847
L'Isle-Jourdain,L'Isle-Jourdain,1.0898587722800728,43.61726804056734
Rouen-Rive-Droite,Rouen,1.0942335262602647,49.4491878684027
Rouen-Rive-Gauche (IE),Rouen,1.0947694170988498,49.434361040287065
Rouen-St-Sever,Rouen,1.094788081953055,49.434347618782894
Auffay,Auffay,1.0984404846926932,49.716190846765
Tourville,Tourville-la-Rivière,1.0985098698794382,49.32455521261547
St-Vincent-Bézenac,St-Vincent-de-Cosse,1.0987225645103695,44.83458185584224
Rouen-Rive-Gauche,Sotteville-lès-Rouen,1.0987991301988975,49.42954819848569
Arnières-sur-Iton,Arnières-sur-Iton,1.1013358222494327,48.99606707251819
Sotteville,Sotteville,1.101571483311934,49.41623397488882
Oissel,Oissel,1.1022829008373112,49.34305349147479
Sotteville,Sotteville-lès-Rouen,1.1024721875103751,49.41242158225634
Rouxmesnil,Rouxmesnil,1.1058299575888044,49.89883452673463
Rouen-Martainville,Sotteville-lès-Rouen,1.1085556177975415,49.438570620868454
Fléré-la-Rivière,Fléré-la-Rivière,1.1088294670826468,47.02141318087097
Vaulry,Vaulry,1.1090879393989723,46.02476599958136
St-Étienne-du-Rouvray,St-Étienne-du-Rouvray,1.1095858062861432,49.377126807968104
St-Victor,St-Maclou-de-Folleville,1.1098791141183326,49.6771262477806
Longueville-sur-Scie,Longueville-sur-Scie,1.1106116102072858,49.79175692319872
Verneuil-sur-Vienne,Verneuil-sur-Vienne,1.1127202695157732,45.837853710105364
Rouxmesnil,Rouxmesnil-Bouteilles,1.1137986628165402,49.89490371576046
Castelsarrasin,Castelsarrasin,1.1144259606267382,44.04039402747942
Veuves-Monteaux,Veuves,1.1238608744643943,47.47562823460634
Azerat,Azerat,1.1262585639145144,45.152217417560294
Courtalain-St-Pellerin,St-Pellerin,1.1268297272993089,48.073564535135596
Arrou,Arrou,1.128644199449027,48.09990951236969
Lafarge,St-Hilaire-les-Places,1.130877718332544,45.63402822958636
Castelnaud-Fayrac,Castelnaud-la-Chapelle,1.1324276251834056,44.83260106398813
Chissay-en-Touraine,Chissay-en-Touraine,1.1336838784705443,47.334955460932576
Arques-la-Bataille,Arques-la-Bataille,1.1342407605899627,49.8806417534455
St-Girons,St-Girons,1.1384391242076026,42.9886405498441
Pezou,Pezou,1.1410136226400156,47.86735974833991
Pontgouin,Pontgouin,1.1417600670465908,48.47803747669013
St-Julien-sur-Garonne,St-Julien-sur-Garonne,1.1430216222734289,43.25933602523008
Aixe-sur-Vienne,Aixe-sur-Vienne,1.1456476252049828,45.79649852975975
Villetrun-Coulommiers,Coulommiers-la-Tour,1.1457395455984152,47.785467065488064
Martin-Église,Martin-Église,1.1472001780847916,49.90370895122111
Le Bois-Mouchet,Châtillon-en-Dunois,1.1492734980428878,48.14973565110479
Évreux-Embranchement,Évreux,1.1504190723961774,49.0183852757476
Mérenvielle,Mérenvielle,1.1506411700448396,43.636582768881254
Darnétal,Darnétal,1.152228281556961,49.443893324073
Évreux-Embranchement,Évreux-Embranchement,1.1549556519881148,49.019451957499115
Nantiat,Nantiat,1.1564793627275225,46.00557306880422
Ruffec-le-Château,Ruffec,1.1572671886272086,46.62853031122437
Avrilly,Avrilly,1.1577728091332176,48.92651450187523
Vézac-Beynac,Vézac,1.1584408585799777,44.83513906835453
Pont-de-l'Arche,Igoville,1.1596604445564829,49.316910719160795
La Bachellerie,St-Rabier,1.1601675535407838,45.151080625749046
Brou,Brou,1.160434237543858,48.21560010971405
Pont-de-l'Arche,Pont-de-l'Arche,1.1605204767105914,49.31700577009474
St-Martin-du-Vivier,St-Martin-du-Vivier,1.1614507537475391,49.470384543909034
Gravigny,Gravigny,1.166491533111104,49.04979021510832
Thouron,Peyrilhac,1.1673269905816392,45.98405090356387
Peyrilhac-St-Jouvent,Peyrilhac,1.170073031698384,45.959766122719756
Châtillon-sur-Indre,Châtillon-sur-Indre,1.171048691962509,46.99214170777599
Montrichard,Montrichard,1.1718058941016842,47.343805335665465
Nieul,Nieul,1.1724012464034643,45.92737949022553
Bosc-le-Hard,Bosc-le-Hard,1.1770690038828595,49.63205768573662
Louviers,Louviers,1.1772128836399929,49.21936539312094
Nexon,Nexon,1.1783095433746116,45.68907647955986
Acquigny,Acquigny,1.179751004044018,49.1709270509616
Préaux-Isneauville,Fontaine-sous-Préaux,1.182964878819428,49.498748576101534
Beynac (Haute-Vienne),Bosmie-l'Aiguille,1.1859514834094176,45.76814857229102
Onzain,Onzain,1.1861244121162442,47.49181168698501
Champsiaux,La Meyze,1.1908411424476837,45.57691197377622
Nonancourt,Nonancourt,1.192839793195551,48.775607268571356
Selommes,Selommes,1.1933062018499074,47.75088460957893
Vieuvicq-Montigny,Vieuvicq,1.196985576591214,48.26532855679336
Dampierre-St-Nicolas,Dampierre-St-Nicolas,1.1976471695920088,49.860893402662974
L'Aiguille,Bosmie-l'Aiguille,1.2051075616552456,45.778321832380975
St-Yrieix,St-Yrieix-la-Perche,1.2056948433750456,45.51904966218731
Sauchay-Bellengreville,Sauchay,1.20590171494187,49.91154014622518
St-Hilaire-la-Gravelle,St-Hilaire-la-Gravelle,1.206285803644958,47.92306647326621
Villefrancoeur,Villefrancoeur,1.2095976330981597,47.698489926897096
St-Aubin-du-Vieil-Évreux,Le Vieil-Évreux,1.2107044182786209,48.99858874568957
Fréteval-Morée,Fréteval,1.2116080688816222,47.89191878889317
Carbonne,Carbonne,1.211692170573849,43.29775347584915
Le Vaudreuil-St-Étienne,St-Étienne-du-Vauvray,1.212213081857647,49.24848343870247
La Meyze,La Meyze,1.2126024178798154,45.62079414050196
Lavilledieu,La Ville-Dieu-du-Temple,1.2150383028050888,44.03545953997265
Sarlat,Sarlat-la-Canéda,1.2184739482481413,44.87747517897749
Prey,Prey,1.218747353492999,48.95710585616671
St-Pierre-du-Vauvray,Val-de-Reuil,1.2245202688060708,49.234321897424785
St-Pierre-du-Vauvray,St-Pierre-du-Vauvray,1.2246154163498586,49.2343555024303
Val-de-Reuil,Val-de-Reuil,1.2248448872497413,49.275526455753706
Condat-le-Lardin,Le Lardin-St-Lazare,1.2264493725162018,45.12665773700414
St-Jean-Froidmentel,St-Jean-Froidmentel,1.2310677200787759,47.95768366854662
Bourré,Bourré,1.2316335106553893,47.34465659391101
Courville-sur-Eure,Courville-sur-Eure,1.2348834002330062,48.45158963723648
Brax-Léguevin,Brax,1.2372476252369415,43.61463097496825
Clion-sur-Indre,Clion,1.238724741367318,46.945200927145365
Ciron,Ciron,1.2404047942418257,46.62829337843631
La Croix-St-Leufroy,La Croix-St-Leufroy,1.240657531227666,49.10670288322696
Cloyes,Cloyes-sur-le-Loir,1.2433877970060625,47.99227491256414
La Chapelle-Vendômoise,La Chapelle-Vendômoise,1.243814596418602,47.673028856767466
Illiers-Combray,Illiers-Combray,1.2449917381828244,48.30423923863093
Couzeix-Chaptelat,Couzeix,1.247635410640315,45.89266922105812
Morgny,Morgny-la-Pommeraye,1.2478006106475579,49.523175878440505
Chouzy,Chouzy-sur-Cisse,1.2478573214196549,47.52032137784461
Critot,Critot,1.25010312925883,49.617636164739
Limoges-Montjovis,Limoges,1.2515967759570237,45.83843758054152
Longages-Noé,Longages,1.2517287337964793,43.355621290455055
Romilly-sur-Andelle,Romilly-sur-Andelle,1.2523580308687032,49.32244127477821
